CompanyName,Name,City,E_Province,Latitude,Longitude,E_NAIC_Name,CO2_eq,E_Units,Symbol,Report_Year,E_DetailPageURL
Teine Energy Ltd.,Kerrobert 4-17-33-24 W3,Oakdale,Saskatchewan,51.825249999999997,-109.379739999999998,Oil and gas extraction (except oil sands),,kilotonnes of carbon dioxide equivalents (kt CO2 eq),0,2022,<a href=""https://indicators-map.canada.ca/App/Detail?id=0112108&GoCTemplateCulture=en-CA"" target=""_blank"">More information</a>
Torxen Energy Ltd.,Princess East Comp Stn 13-36-019-11W4,,Alberta,50.657550000000001,-111.409329999999997,Oil and gas extraction (except oil sands),,kilotonnes of carbon dioxide equivalents (kt CO2 eq),0,2022,<a href=""https://indicators-map.canada.ca/App/Detail?id=0111292&GoCTemplateCulture=en-CA"" target=""_blank"">More information</a>
NuVista Energy Ltd.,Wembley Comp Station 06-27,,Alberta,55.176110000000001,-119.298060000000007,Oil and gas extraction (except oil sands),,kilotonnes of carbon dioxide equivalents (kt CO2 eq),0,2022,<a href=""https://indicators-map.canada.ca/App/Detail?id=0111631&GoCTemplateCulture=en-CA"" target=""_blank"">More information</a>
Société en commandite Boralex Énergie,Centrale de Dolbeau,Dolbeau Mistassini,Quebec,0.000000000000000,0.000000000000000,Other Electric Power Generation,,kilotonnes of carbon dioxide equivalents (kt CO2 eq),0,2022,<a href=""https://indicators-map.canada.ca/App/Detail?id=0110701&GoCTemplateCulture=en-CA"" target=""_blank"">More information</a>
Black Swan Energy,Aitken Comp Stn a-011-A,Not Applicable,British Columbia,57.010420000000003,-122.003119999999996,Oil and gas extraction (except oil sands),,kilotonnes of carbon dioxide equivalents (kt CO2 eq),0,2022,<a href=""https://indicators-map.canada.ca/App/Detail?id=0112030&GoCTemplateCulture=en-CA"" target=""_blank"">More information</a>
Produits forestiers Résolu,PFR Baie-Comeau,Baie Comeau,Quebec,49.255000000000003,-68.155829999999995,Newsprint Mills,,kilotonnes of carbon dioxide equivalents (kt CO2 eq),0,2022,<a href=""https://indicators-map.canada.ca/App/Detail?id=0111237&GoCTemplateCulture=en-CA"" target=""_blank"">More information</a>
ARC RESOURCES LTD.,Cutbank 10-10-065-05 W6M,Cutbank,Alberta,54.612450000000003,-118.664379999999994,Oil and gas extraction (except oil sands),,kilotonnes of carbon dioxide equivalents (kt CO2 eq),0,2022,<a href=""https://indicators-map.canada.ca/App/Detail?id=0111508&GoCTemplateCulture=en-CA"" target=""_blank"">More information</a>
Canlin Energy Corporation,TALISMAN LOVETT RIVER 2-20,,Alberta,53.062950000000001,-116.740319999999997,Oil and gas extraction (except oil sands),,kilotonnes of carbon dioxide equivalents (kt CO2 eq),0,2022,<a href=""https://indicators-map.canada.ca/App/Detail?id=0111686&GoCTemplateCulture=en-CA"" target=""_blank"">More information</a>
Baytex Energy Ltd,04-33-032-25W3,,Saskatchewan,51.781390000000002,-109.492249999999999,Oil and gas extraction (except oil sands),,kilotonnes of carbon dioxide equivalents (kt CO2 eq),0,2022,<a href=""https://indicators-map.canada.ca/App/Detail?id=0112070&GoCTemplateCulture=en-CA"" target=""_blank"">More information</a>
Tourmaline Oil Corp,Tourmaline Musreau 02/09-13-062-06-W6,Grande Cache,Alberta,54.362360000000002,-118.753709999999998,Oil and gas extraction (except oil sands),,kilotonnes of carbon dioxide equivalents (kt CO2 eq),0,2022,<a href=""https://indicators-map.canada.ca/App/Detail?id=0110825&GoCTemplateCulture=en-CA"" target=""_blank"">More information</a>
Husky Oil Operations Limited,Ansell Compressor Station 03-06-049-18W5,Yellowhead County,Alberta,53.194139999999997,-116.625219999999999,Oil and gas extraction (except oil sands),,kilotonnes of carbon dioxide equivalents (kt CO2 eq),0,2022,<a href=""https://indicators-map.canada.ca/App/Detail?id=0111364&GoCTemplateCulture=en-CA"" target=""_blank"">More information</a>
Ramshorn Canada Investments limited,B-55 Well Pad,British Columbia,British Columbia,0.000000000000000,0.000000000000000,Conventional Oil and Gas Extraction,,kilotonnes of carbon dioxide equivalents (kt CO2 eq),0,2022,<a href=""https://indicators-map.canada.ca/App/Detail?id=0110731&GoCTemplateCulture=en-CA"" target=""_blank"">More information</a>
Teine Energy Ltd.,TEINE Lucky Hills 11-7,Kindersley,Saskatchewan,51.556660000000001,-109.229820000000004,Oil and gas extraction (except oil sands),,kilotonnes of carbon dioxide equivalents (kt CO2 eq),0,2022,<a href=""https://indicators-map.canada.ca/App/Detail?id=0112106&GoCTemplateCulture=en-CA"" target=""_blank"">More information</a>
Kelt Exploration,Kelt Fireweed C-A-16-A/94-A-13,Fireweed,British Columbia,56.765560000000001,-121.572220000000002,Oil and gas extraction (except oil sands),,kilotonnes of carbon dioxide equivalents (kt CO2 eq),0,2022,<a href=""https://indicators-map.canada.ca/App/Detail?id=0112029&GoCTemplateCulture=en-CA"" target=""_blank"">More information</a>
Kruger inc.,Kruger Brompton S.E.C.,Sherbrooke,Quebec,45.480699999999999,-71.954099999999997,Newsprint Mills,,kilotonnes of carbon dioxide equivalents (kt CO2 eq),0,2022,<a href=""https://indicators-map.canada.ca/App/Detail?id=0110691&GoCTemplateCulture=en-CA"" target=""_blank"">More information</a>
Chemtrade Logistics Inc.,Chemtrade - Fort Mcmurray GP Inc.,Fort Mc,Alberta,57.051229999999997,-111.614429999999999,All Other Basic Inorganic Chemical Manufacturing,,kilotonnes of carbon dioxide equivalents (kt CO2 eq),0,2022,<a href=""https://indicators-map.canada.ca/App/Detail?id=0111673&GoCTemplateCulture=en-CA"" target=""_blank"">More information</a>
XTO Energy Canada ULC,XTO 07-20-061-19W5,,Alberta,54.287950000000002,-116.813400000000001,Oil and gas extraction (except oil sands),,kilotonnes of carbon dioxide equivalents (kt CO2 eq),0,2022,<a href=""https://indicators-map.canada.ca/App/Detail?id=0112159&GoCTemplateCulture=en-CA"" target=""_blank"">More information</a>
Tembec,Usine Senneterre,Senneterre,Quebec,0.000000000000000,0.000000000000000,Sawmills (except Shingle and Shake Mills),,kilotonnes of carbon dioxide equivalents (kt CO2 eq),0,2022,<a href=""https://indicators-map.canada.ca/App/Detail?id=0110642&GoCTemplateCulture=en-CA"" target=""_blank"">More information</a>
Campbell Co. of Canada,PLANT 051 - Toronto,Etobicoke,Ontario,43.605600000000003,-79.500200000000007,Frozen Food Manufacturing,,kilotonnes of carbon dioxide equivalents (kt CO2 eq),0,2022,<a href=""https://indicators-map.canada.ca/App/Detail?id=0110593&GoCTemplateCulture=en-CA"" target=""_blank"">More information</a>
Crescent Point Energy Corp.,North Rapdan Oil MWB 06-09,,Saskatchewan,49.281720000000000,-108.643039999999999,Oil and gas extraction (except oil sands),,kilotonnes of carbon dioxide equivalents (kt CO2 eq),0,2022,<a href=""https://indicators-map.canada.ca/App/Detail?id=0111582&GoCTemplateCulture=en-CA"" target=""_blank"">More information</a>
Crescent Point Energy Corp.,Rapdan Battery 16-02,,Saskatchewan,49.361849999999997,-108.587270000000004,Oil and gas extraction (except oil sands),,kilotonnes of carbon dioxide equivalents (kt CO2 eq),0,2022,<a href=""https://indicators-map.canada.ca/App/Detail?id=0111396&GoCTemplateCulture=en-CA"" target=""_blank"">More information</a>
EBI Énergie Inc.,Centrale de cogénération,Saint Thomas,Quebec,0.000000000000000,0.000000000000000,Other Electric Power Generation,,kilotonnes of carbon dioxide equivalents (kt CO2 eq),0,2022,<a href=""https://indicators-map.canada.ca/App/Detail?id=0111399&GoCTemplateCulture=en-CA"" target=""_blank"">More information</a>
Masterloy Products Co.,MASTERLOY PRODUCTS Company,Ottawa,Ontario,45.296199999999999,-75.576099999999997,Iron and Steel Mills and Ferro-Alloy Manufacturing,,kilotonnes of carbon dioxide equivalents (kt CO2 eq),0,2022,<a href=""https://indicators-map.canada.ca/App/Detail?id=0111956&GoCTemplateCulture=en-CA"" target=""_blank"">More information</a>
Canadian Natural Resources Limited,BRINTNELL 9-2-81-23w4,,Alberta,55.993499999999997,-113.480999999999995,Conventional Oil and Gas Extraction,,kilotonnes of carbon dioxide equivalents (kt CO2 eq),0,2022,<a href=""https://indicators-map.canada.ca/App/Detail?id=0110743&GoCTemplateCulture=en-CA"" target=""_blank"">More information</a>
QUINSAM COAL COPORATION,QUINSAM COAL CORP,Campbell River,British Columbia,0.000000000000000,0.000000000000000,Bituminous Coal Mining,,kilotonnes of carbon dioxide equivalents (kt CO2 eq),0,2022,<a href=""https://indicators-map.canada.ca/App/Detail?id=0110695&GoCTemplateCulture=en-CA"" target=""_blank"">More information</a>
Taqa North Ltd.,Pc Whitecourt South Bty 12-26,,Alberta,54.131999999999998,-115.546999999999997,Oil and gas extraction (except oil sands),,kilotonnes of carbon dioxide equivalents (kt CO2 eq),0,2022,<a href=""https://indicators-map.canada.ca/App/Detail?id=0112464&GoCTemplateCulture=en-CA"" target=""_blank"">More information</a>
Crescent Point Energy Corp.,Viewfield Oil SWB 04-13,,Saskatchewan,49.640999999999998,-103.245440000000002,Oil and gas extraction (except oil sands),,kilotonnes of carbon dioxide equivalents (kt CO2 eq),0,2022,<a href=""https://indicators-map.canada.ca/App/Detail?id=0111573&GoCTemplateCulture=en-CA"" target=""_blank"">More information</a>
Whitecap Resources Inc.,101/04-26-032-24W3/0 (8B1-26) SWB,Oakdale,Saskatchewan,0.000000000000000,0.000000000000000,Oil and gas extraction (except oil sands),,kilotonnes of carbon dioxide equivalents (kt CO2 eq),0,2022,<a href=""https://indicators-map.canada.ca/App/Detail?id=0111609&GoCTemplateCulture=en-CA"" target=""_blank"">More information</a>
Canadian Natural Resources Limited,Gordondale Comp Stn 16-10,,Alberta,54.451500000000003,-111.092900000000000,Oil and gas extraction (except oil sands),,kilotonnes of carbon dioxide equivalents (kt CO2 eq),0,2022,<a href=""https://indicators-map.canada.ca/App/Detail?id=0112231&GoCTemplateCulture=en-CA"" target=""_blank"">More information</a>
Paramount Resources Ltd.,Zama Battery 14-12,Zama City,Alberta,59.067000000000000,-118.875900000000001,Oil and gas extraction (except oil sands),,kilotonnes of carbon dioxide equivalents (kt CO2 eq),0,2022,<a href=""https://indicators-map.canada.ca/App/Detail?id=0112082&GoCTemplateCulture=en-CA"" target=""_blank"">More information</a>
Baytex Energy Ltd,Seal 13-17-084-18W5,Seal,Alberta,56.289439999999999,-116.819760000000002,Oil and gas extraction (except oil sands),,kilotonnes of carbon dioxide equivalents (kt CO2 eq),0,2022,<a href=""https://indicators-map.canada.ca/App/Detail?id=0111420&GoCTemplateCulture=en-CA"" target=""_blank"">More information</a>
General Scrap Partnership,Wheat City Metals,Regina,Saskatchewan,50.522300000000001,-104.640000000000001,All Other Miscellaneous Manufacturing,,kilotonnes of carbon dioxide equivalents (kt CO2 eq),0,2022,<a href=""https://indicators-map.canada.ca/App/Detail?id=0110397&GoCTemplateCulture=en-CA"" target=""_blank"">More information</a>
CNOOC Petroleum North America ULC,Tsea D-07-I C/S,,British Columbia,59.422899999999998,-122.078100000000006,Oil and gas extraction (except oil sands),,kilotonnes of carbon dioxide equivalents (kt CO2 eq),0,2022,<a href=""https://indicators-map.canada.ca/App/Detail?id=0110784&GoCTemplateCulture=en-CA"" target=""_blank"">More information</a>
Glencore Canada Corporation,Bracemac-McLeod,Matagami,Quebec,49.414870000000001,-77.417389999999997,Copper-Zinc Ore Mining,,kilotonnes of carbon dioxide equivalents (kt CO2 eq),0,2022,<a href=""https://indicators-map.canada.ca/App/Detail?id=0111336&GoCTemplateCulture=en-CA"" target=""_blank"">More information</a>
Enbridge Gas Inc.,Enbridge Gas Distribution Inc.,North York,Ontario,43.772210000000001,-79.323409999999996,Natural Gas Distribution,,kilotonnes of carbon dioxide equivalents (kt CO2 eq),0,2022,<a href=""https://indicators-map.canada.ca/App/Detail?id=0110109&GoCTemplateCulture=en-CA"" target=""_blank"">More information</a>
Progress Energy Canada Ltd.,Progress Gold Creek 06-03-069-06W6,Grande Prairie,Alberta,54.943399999999997,-118.829890000000006,Oil and gas extraction (except oil sands),,kilotonnes of carbon dioxide equivalents (kt CO2 eq),0,2022,<a href=""https://indicators-map.canada.ca/App/Detail?id=0111384&GoCTemplateCulture=en-CA"" target=""_blank"">More information</a>
Bonavista Energy Corporation,Nig Creek A-94-B/94-H-4,,British Columbia,57.077080000000002,-121.665620000000004,Oil and gas extraction (except oil sands),,kilotonnes of carbon dioxide equivalents (kt CO2 eq),0,2022,<a href=""https://indicators-map.canada.ca/App/Detail?id=0110961&GoCTemplateCulture=en-CA"" target=""_blank"">More information</a>
Canadian Natural Resources Limited,Bilbo Compressor Station 06-08-065-09W6,,Alberta,54.608890000000002,-119.325410000000005,Oil and gas extraction (except oil sands),,kilotonnes of carbon dioxide equivalents (kt CO2 eq),0,2022,<a href=""https://indicators-map.canada.ca/App/Detail?id=0111660&GoCTemplateCulture=en-CA"" target=""_blank"">More information</a>
NAT-1 GP Inc.,NAT-1 Ralston,Suffield,Alberta,50.337190000000000,-111.176019999999994,Fossil-Fuel Electric Power Generation,,kilotonnes of carbon dioxide equivalents (kt CO2 eq),0,2022,<a href=""https://indicators-map.canada.ca/App/Detail?id=0111993&GoCTemplateCulture=en-CA"" target=""_blank"">More information</a>
Ember Resources Inc.,Torrington Comp Stn 08-31,,Alberta,51.784500000000001,-113.532899999999998,Oil and gas extraction (except oil sands),,kilotonnes of carbon dioxide equivalents (kt CO2 eq),0,2022,<a href=""https://indicators-map.canada.ca/App/Detail?id=0111862&GoCTemplateCulture=en-CA"" target=""_blank"">More information</a>
AGC Flat glass North America ltée,AGC Flat glass North America ltée,St Augustin De Desmaures,Quebec,0.000000000000000,0.000000000000000,Glass Manufacturing,,kilotonnes of carbon dioxide equivalents (kt CO2 eq),0,2022,<a href=""https://indicators-map.canada.ca/App/Detail?id=0110005&GoCTemplateCulture=en-CA"" target=""_blank"">More information</a>
Rayonier AM,RYAM Matane,Matane,Quebec,48.831800000000001,-67.556500000000000,Mechanical Pulp Mills,,kilotonnes of carbon dioxide equivalents (kt CO2 eq),0,2022,<a href=""https://indicators-map.canada.ca/App/Detail?id=0111720&GoCTemplateCulture=en-CA"" target=""_blank"">More information</a>
Crescent Point Energy Corp.,Oungre Oil MWB 15-31,,Saskatchewan,49.084840000000000,-103.595249999999993,Oil and gas extraction (except oil sands),,kilotonnes of carbon dioxide equivalents (kt CO2 eq),0,2022,<a href=""https://indicators-map.canada.ca/App/Detail?id=0111943&GoCTemplateCulture=en-CA"" target=""_blank"">More information</a>
Kelt Exploration,Kelt Copton 11-25,,Alberta,54.132170000000002,-119.215500000000006,Oil and gas extraction (except oil sands),,kilotonnes of carbon dioxide equivalents (kt CO2 eq),0,2022,<a href=""https://indicators-map.canada.ca/App/Detail?id=0111367&GoCTemplateCulture=en-CA"" target=""_blank"">More information</a>
HARVEST OPERATIONS CORP.,Wainwright B Battery,Wainwright,Alberta,53.148600000000002,-111.194999999999993,Conventional Oil and Gas Extraction,,kilotonnes of carbon dioxide equivalents (kt CO2 eq),0,2022,<a href=""https://indicators-map.canada.ca/App/Detail?id=0110748&GoCTemplateCulture=en-CA"" target=""_blank"">More information</a>
Canadian Natural Resources Limited,Birch Comp Stn C-018-I,,British Columbia,59.530999999999999,-120.878000000000000,Oil and gas extraction (except oil sands),,kilotonnes of carbon dioxide equivalents (kt CO2 eq),0,2022,<a href=""https://indicators-map.canada.ca/App/Detail?id=0110969&GoCTemplateCulture=en-CA"" target=""_blank"">More information</a>
Ovintiv Canada ULC,C-041-G/093-P-09 SCLH,Peace River,British Columbia,55.622920000000001,-120.134370000000004,Oil and gas extraction (except oil sands),,kilotonnes of carbon dioxide equivalents (kt CO2 eq),0,2022,<a href=""https://indicators-map.canada.ca/App/Detail?id=0112358&GoCTemplateCulture=en-CA"" target=""_blank"">More information</a>
PETRONAS Energy Canada Ltd.,Graham C-77-F,Fort St John,British Columbia,56.397919999999999,-122.334370000000007,Oil and gas extraction (except oil sands),,kilotonnes of carbon dioxide equivalents (kt CO2 eq),0,2022,<a href=""https://indicators-map.canada.ca/App/Detail?id=0111467&GoCTemplateCulture=en-CA"" target=""_blank"">More information</a>
Husky Oil Operations Limited,Marsden Single Well Oil Battery 13-16-044-26W3,Manitou Lake,Saskatchewan,52.796610000000001,-109.726020000000005,Oil and gas extraction (except oil sands),,kilotonnes of carbon dioxide equivalents (kt CO2 eq),0,2022,<a href=""https://indicators-map.canada.ca/App/Detail?id=0111561&GoCTemplateCulture=en-CA"" target=""_blank"">More information</a>
Université Laval,"Centrales thermiques, Service des immeubles",Québec,Quebec,46.783000000000001,-71.265400000000000,Universities,,kilotonnes of carbon dioxide equivalents (kt CO2 eq),0,2022,<a href=""https://indicators-map.canada.ca/App/Detail?id=0111152&GoCTemplateCulture=en-CA"" target=""_blank"">More information</a>
Ovintiv Canada ULC,Sunrise Comp Station 01-34,Dawson Creek,British Columbia,55.797840000000001,-120.538259999999994,Oil and gas extraction (except oil sands),,kilotonnes of carbon dioxide equivalents (kt CO2 eq),0,2022,<a href=""https://indicators-map.canada.ca/App/Detail?id=0111906&GoCTemplateCulture=en-CA"" target=""_blank"">More information</a>
NWT Power Corp,Fort McPherson Plant,Fort McPherson,Northwest Territories,0.000000000000000,0.000000000000000,Fossil-Fuel Electric Power Generation,,kilotonnes of carbon dioxide equivalents (kt CO2 eq),0,2022,<a href=""https://indicators-map.canada.ca/App/Detail?id=0110507&GoCTemplateCulture=en-CA"" target=""_blank"">More information</a>
Catalyst Paper Corporation,Powell River Division,Powell River,British Columbia,49.873800000000003,-124.552220000000005,Mechanical Pulp Mills,,kilotonnes of carbon dioxide equivalents (kt CO2 eq),0,2022,<a href=""https://indicators-map.canada.ca/App/Detail?id=0110231&GoCTemplateCulture=en-CA"" target=""_blank"">More information</a>
ARC Resources,ARCRES HZ INGA 14-24-86-23,,British Columbia,56.498970000000000,-121.520859999999999,Oil and gas extraction (except oil sands),,kilotonnes of carbon dioxide equivalents (kt CO2 eq),0,2022,<a href=""https://indicators-map.canada.ca/App/Detail?id=0111529&GoCTemplateCulture=en-CA"" target=""_blank"">More information</a>
Alberta  Health Services,Chinook Regional Hospital,Lethbridge,Alberta,49.685290000000002,-112.816079999999999,General (except Paediatric) Hospitals,,kilotonnes of carbon dioxide equivalents (kt CO2 eq),0,2022,<a href=""https://indicators-map.canada.ca/App/Detail?id=0112289&GoCTemplateCulture=en-CA"" target=""_blank"">More information</a>
Trident Exploration Corp,Thunder Sweet Gas Plant 09-06,,Alberta,54.248500000000000,-114.730000000000004,Oil and gas extraction (except oil sands),,kilotonnes of carbon dioxide equivalents (kt CO2 eq),0,2022,<a href=""https://indicators-map.canada.ca/App/Detail?id=0111318&GoCTemplateCulture=en-CA"" target=""_blank"">More information</a>
Keyera Corp,Caribou Sour Gas Plant c-004-G,Pink Mountain,British Columbia,57.338200000000001,-122.671999999999997,Conventional Oil and Gas Extraction,,kilotonnes of carbon dioxide equivalents (kt CO2 eq),0,2022,<a href=""https://indicators-map.canada.ca/App/Detail?id=0110615&GoCTemplateCulture=en-CA"" target=""_blank"">More information</a>
Seven Generations Energy Ltd.,7G 9-28-064-04W6,Kakwa,Alberta,54.568919999999999,-118.532160000000005,Oil and gas extraction (except oil sands),,kilotonnes of carbon dioxide equivalents (kt CO2 eq),0,2022,<a href=""https://indicators-map.canada.ca/App/Detail?id=0112002&GoCTemplateCulture=en-CA"" target=""_blank"">More information</a>
Crescent Point Energy Corp.,Lucky Hills Oil MWB 15-10,,Saskatchewan,51.560369999999999,-109.153580000000005,Oil and gas extraction (except oil sands),,kilotonnes of carbon dioxide equivalents (kt CO2 eq),0,2022,<a href=""https://indicators-map.canada.ca/App/Detail?id=0111580&GoCTemplateCulture=en-CA"" target=""_blank"">More information</a>
Transocean Canada Drilling Services Ltd.,Transocean Barents,St. John's,Newfoundland and Labrador,46.461900000000000,-48.497900000000001,Oil and Gas Contract Drilling,,kilotonnes of carbon dioxide equivalents (kt CO2 eq),0,2022,<a href=""https://indicators-map.canada.ca/App/Detail?id=0111635&GoCTemplateCulture=en-CA"" target=""_blank"">More information</a>
Atlantic Power (Williams Lake) Limited Partnership,Williams Lake Power Plant,Williams Lake,British Columbia,52.160800000000002,-122.172399999999996,Other Electric Power Generation,,kilotonnes of carbon dioxide equivalents (kt CO2 eq),0,2022,<a href=""https://indicators-map.canada.ca/App/Detail?id=0110322&GoCTemplateCulture=en-CA"" target=""_blank"">More information</a>
Agrium Inc.,Kapuskasing Phosphate Operations,,Ontario,0.000000000000000,0.000000000000000,All Other Non-Metallic Mineral Mining and Quarrying,,kilotonnes of carbon dioxide equivalents (kt CO2 eq),0,2022,<a href=""https://indicators-map.canada.ca/App/Detail?id=0110418&GoCTemplateCulture=en-CA"" target=""_blank"">More information</a>
Bonavista Energy Corporation,FAIRBORNE HZ PINE CK 16-3-56-19,Yellowhead,Alberta,53.564779999999999,-116.719200000000001,Oil and gas extraction (except oil sands),,kilotonnes of carbon dioxide equivalents (kt CO2 eq),0,2022,<a href=""https://indicators-map.canada.ca/App/Detail?id=0112279&GoCTemplateCulture=en-CA"" target=""_blank"">More information</a>
Prairie Provident Resources,Craigmyle East Compressor Station 13-28,Craigmyle,Alberta,51.690899999999999,-112.222499999999997,Oil and gas extraction (except oil sands),,kilotonnes of carbon dioxide equivalents (kt CO2 eq),0,2022,<a href=""https://indicators-map.canada.ca/App/Detail?id=0112469&GoCTemplateCulture=en-CA"" target=""_blank"">More information</a>
Coastal Resources Ltd.,Markerville Compressor Station 11-21-036-02W5,Markerville,Alberta,0.000000000000000,0.000000000000000,Conventional Oil and Gas Extraction,,kilotonnes of carbon dioxide equivalents (kt CO2 eq),0,2022,<a href=""https://indicators-map.canada.ca/App/Detail?id=0110853&GoCTemplateCulture=en-CA"" target=""_blank"">More information</a>
Seven Generations Energy Ltd.,7G 06-18-063-04W6,Kakwa,Alberta,54.448920000000001,-118.594930000000005,Oil and gas extraction (except oil sands),,kilotonnes of carbon dioxide equivalents (kt CO2 eq),0,2022,<a href=""https://indicators-map.canada.ca/App/Detail?id=0112246&GoCTemplateCulture=en-CA"" target=""_blank"">More information</a>
Husky Oil Operations Limited,CELTIC BT 05-16-052-23W3,Saskatoon,Saskatchewan,53.486980000000003,-109.350530000000006,Oil and gas extraction (except oil sands),,kilotonnes of carbon dioxide equivalents (kt CO2 eq),0,2022,<a href=""https://indicators-map.canada.ca/App/Detail?id=0112266&GoCTemplateCulture=en-CA"" target=""_blank"">More information</a>
Husky Oil Operations Limited,CELTIC BT 10-17-052-23W3,Richmond,British Columbia,53.491720000000001,-109.356989999999996,Oil and gas extraction (except oil sands),,kilotonnes of carbon dioxide equivalents (kt CO2 eq),0,2022,<a href=""https://indicators-map.canada.ca/App/Detail?id=0111968&GoCTemplateCulture=en-CA"" target=""_blank"">More information</a>
Glencore Canada Corporation,Brunswick Mine,Bathurst,New Brunswick,47.471699999999998,-65.889700000000005,Lead-Zinc Ore Mining,,kilotonnes of carbon dioxide equivalents (kt CO2 eq),0,2022,<a href=""https://indicators-map.canada.ca/App/Detail?id=0110655&GoCTemplateCulture=en-CA"" target=""_blank"">More information</a>
TransAlta Generation Partnership,Wabamun Thermal Electric Power Generating Plant,Wabamun,Alberta,0.000000000000000,0.000000000000000,Fossil-Fuel Electric Power Generation,,kilotonnes of carbon dioxide equivalents (kt CO2 eq),0,2022,<a href=""https://indicators-map.canada.ca/App/Detail?id=0110311&GoCTemplateCulture=en-CA"" target=""_blank"">More information</a>
Suncor Energy Inc.  Oil Sands,Suncor Energy Inc.  Oil Sands,22 km NE of Fort McMurray,Alberta,0.000000000000000,0.000000000000000,Non-Conventional Oil Extraction,,kilotonnes of carbon dioxide equivalents (kt CO2 eq),0,2022,<a href=""https://indicators-map.canada.ca/App/Detail?id=0110280&GoCTemplateCulture=en-CA"" target=""_blank"">More information</a>
Baytex Energy Ltd,Carruthers	15-18-047-24W3,Carruthers,Saskatchewan,53.057830000000003,-109.500659999999996,In-situ oil sands extraction,,kilotonnes of carbon dioxide equivalents (kt CO2 eq),0,2022,<a href=""https://indicators-map.canada.ca/App/Detail?id=0112063&GoCTemplateCulture=en-CA"" target=""_blank"">More information</a>
Peyto Exploration and Development Corporation,Peyto Galloway 09-34-053-20W5,,Alberta,53.623399999999997,-116.858599999999996,Oil and gas extraction (except oil sands),,kilotonnes of carbon dioxide equivalents (kt CO2 eq),0,2022,<a href=""https://indicators-map.canada.ca/App/Detail?id=0111117&GoCTemplateCulture=en-CA"" target=""_blank"">More information</a>
Ember Resources Inc.,AG20 ABGS0103393 GAYFORD 12-35 GGS,Gayford,Alberta,51.263800000000003,-113.199399999999997,Oil and gas extraction (except oil sands),,kilotonnes of carbon dioxide equivalents (kt CO2 eq),0,2022,<a href=""https://indicators-map.canada.ca/App/Detail?id=0112386&GoCTemplateCulture=en-CA"" target=""_blank"">More information</a>
Crescent Point Energy Corp.,Torquay Oil SWB 04-26,,Saskatchewan,49.059510000000003,-103.517250000000004,Oil and gas extraction (except oil sands),,kilotonnes of carbon dioxide equivalents (kt CO2 eq),0,2022,<a href=""https://indicators-map.canada.ca/App/Detail?id=0111572&GoCTemplateCulture=en-CA"" target=""_blank"">More information</a>
North American Lithium,North American Lithium,La Corne,Quebec,48.405790000000003,-77.827820000000003,All Other Metal Ore Mining,,kilotonnes of carbon dioxide equivalents (kt CO2 eq),0,2022,<a href=""https://indicators-map.canada.ca/App/Detail?id=0111736&GoCTemplateCulture=en-CA"" target=""_blank"">More information</a>
Crescent Point Energy Corp.,Oungre Oil SWB 04-34,,Saskatchewan,49.161450000000002,-103.673169999999999,Oil and gas extraction (except oil sands),,kilotonnes of carbon dioxide equivalents (kt CO2 eq),0,2022,<a href=""https://indicators-map.canada.ca/App/Detail?id=0111583&GoCTemplateCulture=en-CA"" target=""_blank"">More information</a>
NAL Resources Management,WestWard Ho 01-24,Calgary,Alberta,51.840449999999997,-114.571569999999994,Oil and gas extraction (except oil sands),,kilotonnes of carbon dioxide equivalents (kt CO2 eq),0,2022,<a href=""https://indicators-map.canada.ca/App/Detail?id=0112283&GoCTemplateCulture=en-CA"" target=""_blank"">More information</a>
PEI Energy Systems,UPEI Boiler,Charlottetown,Prince Edward Island,46.251399999999997,-63.107999999999997,Steam and Air-Conditioning Supply,,kilotonnes of carbon dioxide equivalents (kt CO2 eq),0,2022,<a href=""https://indicators-map.canada.ca/App/Detail?id=0110624&GoCTemplateCulture=en-CA"" target=""_blank"">More information</a>
Alberta  Health Services,Alberta Children's Hospital,Calgary,Alberta,51.070000000000000,-114.150000000000006,Paediatric Hospitals,,kilotonnes of carbon dioxide equivalents (kt CO2 eq),0,2022,<a href=""https://indicators-map.canada.ca/App/Detail?id=0111918&GoCTemplateCulture=en-CA"" target=""_blank"">More information</a>
ExxonMobil Canada Properties,Venture Platform,Venture Platform,Nova Scotia,44.059399999999997,-59.575400000000002,Oil and gas extraction (except oil sands),,kilotonnes of carbon dioxide equivalents (kt CO2 eq),0,2022,<a href=""https://indicators-map.canada.ca/App/Detail?id=0111254&GoCTemplateCulture=en-CA"" target=""_blank"">More information</a>
TransCanada Gas Storage Partnership,Edson Gas Storage Facility,Edson,Alberta,53.676679999999998,-116.787599999999998,Other Warehousing and Storage,,kilotonnes of carbon dioxide equivalents (kt CO2 eq),0,2022,<a href=""https://indicators-map.canada.ca/App/Detail?id=0111370&GoCTemplateCulture=en-CA"" target=""_blank"">More information</a>
PETRONAS Energy Canada Ltd.,Caribou B-19-H,Fort St John,British Columbia,57.343649999999997,-122.610870000000006,Oil and gas extraction (except oil sands),,kilotonnes of carbon dioxide equivalents (kt CO2 eq),0,2022,<a href=""https://indicators-map.canada.ca/App/Detail?id=0111911&GoCTemplateCulture=en-CA"" target=""_blank"">More information</a>
Paramount Resources Ltd.,TRILOGY TWO CREEK 07-04,,Alberta,54.418100000000003,-116.361999999999995,Oil and gas extraction (except oil sands),,kilotonnes of carbon dioxide equivalents (kt CO2 eq),0,2022,<a href=""https://indicators-map.canada.ca/App/Detail?id=0111099&GoCTemplateCulture=en-CA"" target=""_blank"">More information</a>
Bonavista Energy Corporation,Willesden Gn 16-12-42-6W5,Willesden,Alberta,52.608350000000002,-114.723519999999994,Oil and gas extraction (except oil sands),,kilotonnes of carbon dioxide equivalents (kt CO2 eq),0,2022,<a href=""https://indicators-map.canada.ca/App/Detail?id=0111688&GoCTemplateCulture=en-CA"" target=""_blank"">More information</a>
SemCams Midstream ULC,Wapiti 12-16 CS,Grande Cache,Alberta,54.539720000000003,-117.880030000000005,Oil and gas extraction (except oil sands),,kilotonnes of carbon dioxide equivalents (kt CO2 eq),0,2022,<a href=""https://indicators-map.canada.ca/App/Detail?id=0112248&GoCTemplateCulture=en-CA"" target=""_blank"">More information</a>
Whitecap Resources Inc.,101/06-26-032-24W3/0 (4B8-26) SWB,Oakdale,Saskatchewan,0.000000000000000,0.000000000000000,Oil and gas extraction (except oil sands),,kilotonnes of carbon dioxide equivalents (kt CO2 eq),0,2022,<a href=""https://indicators-map.canada.ca/App/Detail?id=0111610&GoCTemplateCulture=en-CA"" target=""_blank"">More information</a>
Valley Power LP,Valley Power LP,Drayton Valley,Alberta,53.206299999999999,-114.983999999999995,Other Electric Power Generation,,kilotonnes of carbon dioxide equivalents (kt CO2 eq),0,2022,<a href=""https://indicators-map.canada.ca/App/Detail?id=0110700&GoCTemplateCulture=en-CA"" target=""_blank"">More information</a>
Ember Resources Inc.,01-03-035-19W4,,Alberta,51.972149999999999,-112.630439999999993,Oil and gas extraction (except oil sands),,kilotonnes of carbon dioxide equivalents (kt CO2 eq),0,2022,<a href=""https://indicators-map.canada.ca/App/Detail?id=0112128&GoCTemplateCulture=en-CA"" target=""_blank"">More information</a>
Waste Management of Canada Corporation,West Edmonton Landfill,Edmonton,Alberta,53.584099999999999,-113.614400000000003,Waste Treatment and Disposal,,kilotonnes of carbon dioxide equivalents (kt CO2 eq),0,2022,<a href=""https://indicators-map.canada.ca/App/Detail?id=0110352&GoCTemplateCulture=en-CA"" target=""_blank"">More information</a>
Atlantic Power LP,Kapuskasing Power Plant,Kapuskasing,Ontario,49.390900000000002,-82.437299999999993,Fossil-Fuel Electric Power Generation,,kilotonnes of carbon dioxide equivalents (kt CO2 eq),0,2022,<a href=""https://indicators-map.canada.ca/App/Detail?id=0110410&GoCTemplateCulture=en-CA"" target=""_blank"">More information</a>
Whitecap Resources Inc.,102/01-21-028-24W3/0 (1C1-20) SWB,Kindersley,Saskatchewan,51.403880000000001,-109.335329999999999,Oil and gas extraction (except oil sands),,kilotonnes of carbon dioxide equivalents (kt CO2 eq),0,2022,<a href=""https://indicators-map.canada.ca/App/Detail?id=0111890&GoCTemplateCulture=en-CA"" target=""_blank"">More information</a>
ExxonMobil Canada Properties,Alma Platform,Alma Platform,Nova Scotia,43.401400000000002,-60.308100000000003,Oil and gas extraction (except oil sands),,kilotonnes of carbon dioxide equivalents (kt CO2 eq),0,2022,<a href=""https://indicators-map.canada.ca/App/Detail?id=0111947&GoCTemplateCulture=en-CA"" target=""_blank"">More information</a>
Torxen Energy Ltd.,Wintering Hills West Sweet Gas Plant 06-17-025-20W4,,Alberta,51.130690000000001,-112.763850000000005,Oil and gas extraction (except oil sands),,kilotonnes of carbon dioxide equivalents (kt CO2 eq),0,2022,<a href=""https://indicators-map.canada.ca/App/Detail?id=0112020&GoCTemplateCulture=en-CA"" target=""_blank"">More information</a>
Tidewater Midstream and Infrastructure Ltd.,Paddle River Sour Gas Processing Plant,Paddle River,Alberta,53.902500000000003,-115.190230000000000,Oil and gas extraction (except oil sands),,kilotonnes of carbon dioxide equivalents (kt CO2 eq),0,2022,<a href=""https://indicators-map.canada.ca/App/Detail?id=0111704&GoCTemplateCulture=en-CA"" target=""_blank"">More information</a>
Imperial Oil Resources,Bonnie Glen Gas Plant,Thorsby,Alberta,0.000000000000000,0.000000000000000,Conventional Oil and Gas Extraction,,kilotonnes of carbon dioxide equivalents (kt CO2 eq),0,2022,<a href=""https://indicators-map.canada.ca/App/Detail?id=0110023&GoCTemplateCulture=en-CA"" target=""_blank"">More information</a>
Taqa North Ltd.,BEARBERRY 07-09 GGS,,Alberta,51.814940000000000,-114.932000000000002,Oil and gas extraction (except oil sands),,kilotonnes of carbon dioxide equivalents (kt CO2 eq),0,2022,<a href=""https://indicators-map.canada.ca/App/Detail?id=0112284&GoCTemplateCulture=en-CA"" target=""_blank"">More information</a>
PepsiCo Canada ULC,Pepsico Aliments Canada - Usine de Lauzon,Lévis,Quebec,46.818600000000004,-71.134399999999999,Other Snack Food Manufacturing,,kilotonnes of carbon dioxide equivalents (kt CO2 eq),0,2022,<a href=""https://indicators-map.canada.ca/App/Detail?id=0111830&GoCTemplateCulture=en-CA"" target=""_blank"">More information</a>
Newfoundland and Labrador Hydro,Holyrood Combustion Turbine,Holyrood,Newfoundland and Labrador,47.451329999999999,-53.096570000000000,Fossil-Fuel Electric Power Generation,,kilotonnes of carbon dioxide equivalents (kt CO2 eq),0,2022,<a href=""https://indicators-map.canada.ca/App/Detail?id=0110839&GoCTemplateCulture=en-CA"" target=""_blank"">More information</a>
Cleo Energy Corp.,Signalta Sedgewick 16-04-042-12W4,,Alberta,52.591270000000002,-111.666049999999998,Oil and gas extraction (except oil sands),,kilotonnes of carbon dioxide equivalents (kt CO2 eq),0,2022,<a href=""https://indicators-map.canada.ca/App/Detail?id=0112101&GoCTemplateCulture=en-CA"" target=""_blank"">More information</a>
Husky Oil Operations Limited,CELTIC BT 03-17-052-23W3,Frenchman Butte,Saskatchewan,53.484499999999997,-109.363060000000004,Oil and gas extraction (except oil sands),,kilotonnes of carbon dioxide equivalents (kt CO2 eq),0,2022,<a href=""https://indicators-map.canada.ca/App/Detail?id=0111967&GoCTemplateCulture=en-CA"" target=""_blank"">More information</a>
Ember Resources Inc.,06-24-039-23W4 Alix,Stettler,Alberta,52.366500000000002,-113.191800000000001,Oil and gas extraction (except oil sands),,kilotonnes of carbon dioxide equivalents (kt CO2 eq),0,2022,<a href=""https://indicators-map.canada.ca/App/Detail?id=0111871&GoCTemplateCulture=en-CA"" target=""_blank"">More information</a>
Baytex Energy Ltd,HARMON VALLEY 05-13-084-19W5,Harmon Valley,Alberta,56.280880000000003,-116.872789999999995,Oil and gas extraction (except oil sands),,kilotonnes of carbon dioxide equivalents (kt CO2 eq),0,2022,<a href=""https://indicators-map.canada.ca/App/Detail?id=0111446&GoCTemplateCulture=en-CA"" target=""_blank"">More information</a>
Expert Manufacturing Inc.,Expert Manufacturing Inc.,Concord,Ontario,43.787830000000000,-79.475200000000001,Office Furniture (except Wood) Manufacturing,,kilotonnes of carbon dioxide equivalents (kt CO2 eq),0,2022,<a href=""https://indicators-map.canada.ca/App/Detail?id=0110703&GoCTemplateCulture=en-CA"" target=""_blank"">More information</a>
Crescent Point Energy Corp.,Viewfield Oil SWB 06-18,,Saskatchewan,49.557479999999998,-103.217309999999998,Oil and gas extraction (except oil sands),,kilotonnes of carbon dioxide equivalents (kt CO2 eq),0,2022,<a href=""https://indicators-map.canada.ca/App/Detail?id=0111578&GoCTemplateCulture=en-CA"" target=""_blank"">More information</a>
Ember Resources Inc.,NEVIS NORTH 06-11-042-23W4,Mirror,Alberta,52.604900000000001,-113.196299999999994,Oil and gas extraction (except oil sands),,kilotonnes of carbon dioxide equivalents (kt CO2 eq),0,2022,<a href=""https://indicators-map.canada.ca/App/Detail?id=0111867&GoCTemplateCulture=en-CA"" target=""_blank"">More information</a>
Produits Techni-Seal,PRODUITS TECHNI-SEAL - CANDIAC,Candiac,Quebec,45.371800000000000,-73.524799999999999,All Other Miscellaneous Chemical Product Manufacturing,,kilotonnes of carbon dioxide equivalents (kt CO2 eq),0,2022,<a href=""https://indicators-map.canada.ca/App/Detail?id=0110630&GoCTemplateCulture=en-CA"" target=""_blank"">More information</a>
Hanson Brick,Hanson Brick - Burlington,Burlington,Ontario,0.000000000000000,0.000000000000000,All Other Non-Metallic Mineral Product Manufacturing,,kilotonnes of carbon dioxide equivalents (kt CO2 eq),0,2022,<a href=""https://indicators-map.canada.ca/App/Detail?id=0110474&GoCTemplateCulture=en-CA"" target=""_blank"">More information</a>
Plasco Energy Group,Plasco Trail Road,Ottawa,Ontario,45.232500000000002,-75.770799999999994,Other Electric Power Generation,,kilotonnes of carbon dioxide equivalents (kt CO2 eq),0,2022,<a href=""https://indicators-map.canada.ca/App/Detail?id=0110532&GoCTemplateCulture=en-CA"" target=""_blank"">More information</a>
Tidewater Midstream and Infrastructure Ltd.,Marten Creek Sour Gas Plant 10-02,,Alberta,55.643999999999998,-114.659700000000001,Oil and gas extraction (except oil sands),,kilotonnes of carbon dioxide equivalents (kt CO2 eq),0,2022,<a href=""https://indicators-map.canada.ca/App/Detail?id=0111024&GoCTemplateCulture=en-CA"" target=""_blank"">More information</a>
Ember Resources Inc.,AG20 ABGS0084730 BASHAW 13-20 GGS,Bashaw,Alberta,52.723570000000002,-113.167299999999997,Oil and gas extraction (except oil sands),,kilotonnes of carbon dioxide equivalents (kt CO2 eq),0,2022,<a href=""https://indicators-map.canada.ca/App/Detail?id=0112424&GoCTemplateCulture=en-CA"" target=""_blank"">More information</a>
Lynx Energy ULC,Penhold Central Battery 15-29,Penhold C,Alberta,52.124699999999997,-113.677199999999999,Oil and gas extraction (except oil sands),,kilotonnes of carbon dioxide equivalents (kt CO2 eq),0,2022,<a href=""https://indicators-map.canada.ca/App/Detail?id=0111985&GoCTemplateCulture=en-CA"" target=""_blank"">More information</a>
Tundra Oil & Gas Limited,Sinclair C02 03-04-008-29 W1M,Sinclair,Manitoba,0.000000000000000,0.000000000000000,Oil and gas extraction (except oil sands),,kilotonnes of carbon dioxide equivalents (kt CO2 eq),0,2022,<a href=""https://indicators-map.canada.ca/App/Detail?id=0111592&GoCTemplateCulture=en-CA"" target=""_blank"">More information</a>
Lake Superior Power,Lake Superior Power,Sault Ste Marie,Ontario,46.515490000000000,-84.369079999999997,Fossil-Fuel Electric Power Generation,,kilotonnes of carbon dioxide equivalents (kt CO2 eq),0,2022,<a href=""https://indicators-map.canada.ca/App/Detail?id=0110335&GoCTemplateCulture=en-CA"" target=""_blank"">More information</a>
Devon Canada Corporation,Horse-Leland Gas Plant,,Alberta,0.000000000000000,0.000000000000000,Conventional Oil and Gas Extraction,,kilotonnes of carbon dioxide equivalents (kt CO2 eq),0,2022,<a href=""https://indicators-map.canada.ca/App/Detail?id=0110450&GoCTemplateCulture=en-CA"" target=""_blank"">More information</a>
Catalyst Paper Corporation,Elk Falls Division,Campbell River,British Columbia,0.000000000000000,0.000000000000000,Newsprint Mills,,kilotonnes of carbon dioxide equivalents (kt CO2 eq),0,2022,<a href=""https://indicators-map.canada.ca/App/Detail?id=0110102&GoCTemplateCulture=en-CA"" target=""_blank"">More information</a>
Canadian Natural Resources Limited,Anderson Gas Battery 15-03,,Alberta,55.998030000000000,-118.532420000000002,Oil and gas extraction (except oil sands),,kilotonnes of carbon dioxide equivalents (kt CO2 eq),0,2022,<a href=""https://indicators-map.canada.ca/App/Detail?id=0111640&GoCTemplateCulture=en-CA"" target=""_blank"">More information</a>
Ramshorn Canada Investments limited,PW Inj. Facility,British Columbia,British Columbia,0.000000000000000,0.000000000000000,Conventional Oil and Gas Extraction,,kilotonnes of carbon dioxide equivalents (kt CO2 eq),0,2022,<a href=""https://indicators-map.canada.ca/App/Detail?id=0110734&GoCTemplateCulture=en-CA"" target=""_blank"">More information</a>
Capital Power (Alberta) Limited Partnership,Clover Bar Landfill Gas Generating Station,Edmonton,Alberta,53.596200000000003,-113.332099999999997,Other Electric Power Generation,,kilotonnes of carbon dioxide equivalents (kt CO2 eq),0,2022,<a href=""https://indicators-map.canada.ca/App/Detail?id=0110875&GoCTemplateCulture=en-CA"" target=""_blank"">More information</a>
Husky Oil Operations Limited,Sylvan Lake Gas Plant 01-21-038-02W5,Sylvan Lake,Alberta,52.275700000000001,-114.218800000000002,Oil and gas extraction (except oil sands),,kilotonnes of carbon dioxide equivalents (kt CO2 eq),0,2022,<a href=""https://indicators-map.canada.ca/App/Detail?id=0111145&GoCTemplateCulture=en-CA"" target=""_blank"">More information</a>
Surge Energy Inc.,Sawn Lake Battery 12-29-091-12W5,,Alberta,56.924999999999997,-115.902600000000007,Oil and gas extraction (except oil sands),,kilotonnes of carbon dioxide equivalents (kt CO2 eq),0,2022,<a href=""https://indicators-map.canada.ca/App/Detail?id=0112263&GoCTemplateCulture=en-CA"" target=""_blank"">More information</a>
Graymont (QC) Inc.,Usine de Joliette,Joliette,Quebec,46.013399999999997,-73.457599999999999,Lime Manufacturing,,kilotonnes of carbon dioxide equivalents (kt CO2 eq),0,2022,<a href=""https://indicators-map.canada.ca/App/Detail?id=0110153&GoCTemplateCulture=en-CA"" target=""_blank"">More information</a>
Compagnie Abitibi Consolidated du Canada,Division Belgo,Shawinigan,Quebec,0.000000000000000,0.000000000000000,Newsprint Mills,,kilotonnes of carbon dioxide equivalents (kt CO2 eq),0,2022,<a href=""https://indicators-map.canada.ca/App/Detail?id=0110087&GoCTemplateCulture=en-CA"" target=""_blank"">More information</a>
Ramshorn Canada a division of Nabors Drilling Canada Limited,Ramshorn Canada LFO,British Columbia,British Columbia,59.806199999999997,-122.715999999999994,Conventional Oil and Gas Extraction,,kilotonnes of carbon dioxide equivalents (kt CO2 eq),0,2022,<a href=""https://indicators-map.canada.ca/App/Detail?id=0110741&GoCTemplateCulture=en-CA"" target=""_blank"">More information</a>
Waste Management of Canada Corporation,Thorhild,Edmonton,Alberta,53.584420000000001,-113.612930000000006,Waste Treatment and Disposal,,kilotonnes of carbon dioxide equivalents (kt CO2 eq),0,2022,<a href=""https://indicators-map.canada.ca/App/Detail?id=0111916&GoCTemplateCulture=en-CA"" target=""_blank"">More information</a>
Waste Management of Canada Corporation,Ottawa Landfill,Ottawa,Ontario,45.285499999999999,-75.963399999999993,Waste Treatment and Disposal,,kilotonnes of carbon dioxide equivalents (kt CO2 eq),0,2022,<a href=""https://indicators-map.canada.ca/App/Detail?id=0110339&GoCTemplateCulture=en-CA"" target=""_blank"">More information</a>
Tourmaline Oil Corp,Mulligan Fourth Creek 15-13-082-09-W6,Grande Prairie,Alberta,56.115699999999997,-119.262100000000004,Oil and gas extraction (except oil sands),,kilotonnes of carbon dioxide equivalents (kt CO2 eq),0,2022,<a href=""https://indicators-map.canada.ca/App/Detail?id=0112080&GoCTemplateCulture=en-CA"" target=""_blank"">More information</a>
Moly-Cop Canada,Molycop Canada Plant 2,Kamloops,British Columbia,50.655980000000000,-120.097030000000004,Iron Foundries,,kilotonnes of carbon dioxide equivalents (kt CO2 eq),0,2022,<a href=""https://indicators-map.canada.ca/App/Detail?id=0112554&GoCTemplateCulture=en-CA"" target=""_blank"">More information</a>
Baytex Energy Ltd,13-13-031-22W3,,Saskatchewan,51.661140000000003,-108.983459999999994,Oil and gas extraction (except oil sands),,kilotonnes of carbon dioxide equivalents (kt CO2 eq),0,2022,<a href=""https://indicators-map.canada.ca/App/Detail?id=0112076&GoCTemplateCulture=en-CA"" target=""_blank"">More information</a>
Trident Exploration Corp,Mikwan Gas Plant 05-19-035-22W4,Elnora,Alberta,52.017299999999999,-113.148799999999994,Oil and gas extraction (except oil sands),,kilotonnes of carbon dioxide equivalents (kt CO2 eq),0,2022,<a href=""https://indicators-map.canada.ca/App/Detail?id=0111141&GoCTemplateCulture=en-CA"" target=""_blank"">More information</a>
Caltex Resources Ltd.,Bodo 9-14,Municipal District of Provost ,Alberta,52.181010000000001,-110.031070000000000,Oil and gas extraction (except oil sands),,kilotonnes of carbon dioxide equivalents (kt CO2 eq),0,2022,<a href=""https://indicators-map.canada.ca/App/Detail?id=0111953&GoCTemplateCulture=en-CA"" target=""_blank"">More information</a>
Progress Energy Canada Ltd.,Progress Town South D-059-J/094-B-16,Fort St. John,British Columbia,56.965840000000000,-122.230549999999994,Oil and gas extraction (except oil sands),,kilotonnes of carbon dioxide equivalents (kt CO2 eq),0,2022,<a href=""https://indicators-map.canada.ca/App/Detail?id=0111358&GoCTemplateCulture=en-CA"" target=""_blank"">More information</a>
Canadian Natural Resources Limited,Hatton Senate Compressor Station 04-28-014-29W3,,Saskatchewan,50.195390000000003,-109.915620000000004,Oil and gas extraction (except oil sands),,kilotonnes of carbon dioxide equivalents (kt CO2 eq),0,2022,<a href=""https://indicators-map.canada.ca/App/Detail?id=0111664&GoCTemplateCulture=en-CA"" target=""_blank"">More information</a>
Northern Pulp Nova Scotia Corporation,Northern Pulp Nova Scotia Corporation,Abercrombie,Nova Scotia,45.652430000000003,-62.716529999999999,Chemical Pulp Mills,,kilotonnes of carbon dioxide equivalents (kt CO2 eq),0,2022,<a href=""https://indicators-map.canada.ca/App/Detail?id=0110500&GoCTemplateCulture=en-CA"" target=""_blank"">More information</a>
Obsidian Energy Ltd.,West Seal Bitumen Battery 15-06,Calgary,Alberta,56.171990000000001,-116.673259999999999,Oil and gas extraction (except oil sands),,kilotonnes of carbon dioxide equivalents (kt CO2 eq),0,2022,<a href=""https://indicators-map.canada.ca/App/Detail?id=0111710&GoCTemplateCulture=en-CA"" target=""_blank"">More information</a>
Devon Canada Corporation,Leismer 03-07,,Alberta,55.651800000000001,-111.084400000000002,Oil and gas extraction (except oil sands),,kilotonnes of carbon dioxide equivalents (kt CO2 eq),0,2022,<a href=""https://indicators-map.canada.ca/App/Detail?id=0111306&GoCTemplateCulture=en-CA"" target=""_blank"">More information</a>
Husky Oil Operations Limited,TNSH BT 12-15-050-24W3,Eldon,Saskatchewan,53.316060000000000,-109.439679999999996,Oil and gas extraction (except oil sands),,kilotonnes of carbon dioxide equivalents (kt CO2 eq),0,2022,<a href=""https://indicators-map.canada.ca/App/Detail?id=0111975&GoCTemplateCulture=en-CA"" target=""_blank"">More information</a>
Canadian Natural Resources Limited,Ladyfern Comp Stn B-017-I,,British Columbia,57.177500000000002,-120.085300000000004,Oil and gas extraction (except oil sands),,kilotonnes of carbon dioxide equivalents (kt CO2 eq),0,2022,<a href=""https://indicators-map.canada.ca/App/Detail?id=0111191&GoCTemplateCulture=en-CA"" target=""_blank"">More information</a>
Whitecap Resources Inc.,101/01-21-028-24W3/0 (4B1-20) SWB,Kindersley,Saskatchewan,0.000000000000000,0.000000000000000,Oil and gas extraction (except oil sands),,kilotonnes of carbon dioxide equivalents (kt CO2 eq),0,2022,<a href=""https://indicators-map.canada.ca/App/Detail?id=0111606&GoCTemplateCulture=en-CA"" target=""_blank"">More information</a>
Ecowaste Industries Ltd.,Ecowaste Industries Ltd.,Richmond,British Columbia,49.143780000000000,-123.056420000000003,Waste Treatment and Disposal,,kilotonnes of carbon dioxide equivalents (kt CO2 eq),0,2022,<a href=""https://indicators-map.canada.ca/App/Detail?id=0112111&GoCTemplateCulture=en-CA"" target=""_blank"">More information</a>
Canlin Energy Corporation,GILBY 4-18-040-2W5,Sunbreaker Cove,Alberta,52.437510000000003,-114.285480000000007,Oil and gas extraction (except oil sands),,kilotonnes of carbon dioxide equivalents (kt CO2 eq),0,2022,<a href=""https://indicators-map.canada.ca/App/Detail?id=0112295&GoCTemplateCulture=en-CA"" target=""_blank"">More information</a>
Crescent Point Energy Corp.,Battrum Oil Battery 10-21,,Saskatchewan,50.536200000000001,-108.282600000000002,Oil and gas extraction (except oil sands),,kilotonnes of carbon dioxide equivalents (kt CO2 eq),0,2022,<a href=""https://indicators-map.canada.ca/App/Detail?id=0111157&GoCTemplateCulture=en-CA"" target=""_blank"">More information</a>
Ember Resources Inc.,Irricana Compressor Station 10-22,,Alberta,51.319600000000001,-113.717600000000004,Oil and gas extraction (except oil sands),,kilotonnes of carbon dioxide equivalents (kt CO2 eq),0,2022,<a href=""https://indicators-map.canada.ca/App/Detail?id=0111861&GoCTemplateCulture=en-CA"" target=""_blank"">More information</a>
Spur Petroleum Ltd.,Marten Hills 05-13-075,,Alberta,55.495460000000001,-113.754419999999996,Oil and gas extraction (except oil sands),,kilotonnes of carbon dioxide equivalents (kt CO2 eq),0,2022,<a href=""https://indicators-map.canada.ca/App/Detail?id=0112482&GoCTemplateCulture=en-CA"" target=""_blank"">More information</a>
ArcelorMittal Produits Longs Canada s.e.n.c,Laminoir fil machine - ArcelorMittal Contrecoeur,Contrecoeur,Quebec,45.829500000000003,-73.258399999999995,Iron and Steel Mills and Ferro-Alloy Manufacturing,,kilotonnes of carbon dioxide equivalents (kt CO2 eq),0,2022,<a href=""https://indicators-map.canada.ca/App/Detail?id=0111230&GoCTemplateCulture=en-CA"" target=""_blank"">More information</a>
Devon Canada Corporation,Jackfish 2 SAGD Plant,Conklin,Alberta,55.524549999999998,-110.998750000000001,In-situ oil sands extraction,,kilotonnes of carbon dioxide equivalents (kt CO2 eq),0,2022,<a href=""https://indicators-map.canada.ca/App/Detail?id=0110671&GoCTemplateCulture=en-CA"" target=""_blank"">More information</a>
Cenovus Energy Inc.,Lodgepole Sweet Gas Plant,,Alberta,53.103200000000001,-115.363399999999999,Oil and gas extraction (except oil sands),,kilotonnes of carbon dioxide equivalents (kt CO2 eq),0,2022,<a href=""https://indicators-map.canada.ca/App/Detail?id=0111268&GoCTemplateCulture=en-CA"" target=""_blank"">More information</a>
Ressources Métanor inc.,Mine Barry,Desmaraisville,Quebec,48.590000000000003,-75.459999999999994,Gold and Silver Ore Mining,,kilotonnes of carbon dioxide equivalents (kt CO2 eq),0,2022,<a href=""https://indicators-map.canada.ca/App/Detail?id=0110542&GoCTemplateCulture=en-CA"" target=""_blank"">More information</a>
Obsidian Energy Ltd.,Amoco Willesden Green Oil Battery 13-27,Calgary,Alberta,52.652270000000001,-115.078119999999998,Oil and gas extraction (except oil sands),,kilotonnes of carbon dioxide equivalents (kt CO2 eq),0,2022,<a href=""https://indicators-map.canada.ca/App/Detail?id=0112006&GoCTemplateCulture=en-CA"" target=""_blank"">More information</a>
Husky Oil Operations Limited,BIG GULLY BT 16-12-050-26W3,Saskatoon,Saskatchewan,53.305129999999998,-109.665400000000005,Oil and gas extraction (except oil sands),,kilotonnes of carbon dioxide equivalents (kt CO2 eq),0,2022,<a href=""https://indicators-map.canada.ca/App/Detail?id=0112256&GoCTemplateCulture=en-CA"" target=""_blank"">More information</a>
Cona Resources Ltd.,Winter Main 12-32,,Saskatchewan,52.662179999999999,-109.573539999999994,Oil and gas extraction (except oil sands),,kilotonnes of carbon dioxide equivalents (kt CO2 eq),0,2022,<a href=""https://indicators-map.canada.ca/App/Detail?id=0111338&GoCTemplateCulture=en-CA"" target=""_blank"">More information</a>
Whitecap Resources Inc.,Dodsland 07-36-030-21W3 BTY,Kindersley,Saskatchewan,51.610900000000001,-108.825299999999999,Oil and gas extraction (except oil sands),,kilotonnes of carbon dioxide equivalents (kt CO2 eq),0,2022,<a href=""https://indicators-map.canada.ca/App/Detail?id=0112254&GoCTemplateCulture=en-CA"" target=""_blank"">More information</a>
Long Run Exploration Ltd,LRE - Paddle North 01-06,,Alberta,58.081200000000003,-117.635599999999997,Oil and gas extraction (except oil sands),,kilotonnes of carbon dioxide equivalents (kt CO2 eq),0,2022,<a href=""https://indicators-map.canada.ca/App/Detail?id=0111962&GoCTemplateCulture=en-CA"" target=""_blank"">More information</a>
Spartan Delta Corp.,Karr Oil MWB 06-10-064-02W6,Calgary,Alberta,54.521529999999998,-118.217550000000003,Oil and gas extraction (except oil sands),,kilotonnes of carbon dioxide equivalents (kt CO2 eq),0,2022,<a href=""https://indicators-map.canada.ca/App/Detail?id=0112236&GoCTemplateCulture=en-CA"" target=""_blank"">More information</a>
Baytex Energy Ltd,01-31-026-19W3,Richlea,Saskatchewan,51.258060000000000,-108.634929999999997,Oil and gas extraction (except oil sands),,kilotonnes of carbon dioxide equivalents (kt CO2 eq),0,2022,<a href=""https://indicators-map.canada.ca/App/Detail?id=0111807&GoCTemplateCulture=en-CA"" target=""_blank"">More information</a>
Haldimand County,Tom Howe Landfill Site,Walpole,Ontario,42.987099999999998,-80.127200000000002,Waste Treatment and Disposal,,kilotonnes of carbon dioxide equivalents (kt CO2 eq),0,2022,<a href=""https://indicators-map.canada.ca/App/Detail?id=0111065&GoCTemplateCulture=en-CA"" target=""_blank"">More information</a>
Hydro-Québec,Centrale de La Romaine,La Romaine,Quebec,50.215600000000002,-60.686599999999999,Fossil-Fuel Electric Power Generation,,kilotonnes of carbon dioxide equivalents (kt CO2 eq),0,2022,<a href=""https://indicators-map.canada.ca/App/Detail?id=0112035&GoCTemplateCulture=en-CA"" target=""_blank"">More information</a>
Eurocan Pulp and Paper Co,Eurocan Pulp and Paper Mill,Kitimat,British Columbia,0.000000000000000,0.000000000000000,Paper (except Newsprint) Mills,,kilotonnes of carbon dioxide equivalents (kt CO2 eq),0,2022,<a href=""https://indicators-map.canada.ca/App/Detail?id=0110110&GoCTemplateCulture=en-CA"" target=""_blank"">More information</a>
Velvet Energy Ltd.,Gold Creek Oil MWB 06-35-068-03W6,,Alberta,54.928770000000000,-118.346860000000007,Oil and gas extraction (except oil sands),,kilotonnes of carbon dioxide equivalents (kt CO2 eq),0,2022,<a href=""https://indicators-map.canada.ca/App/Detail?id=0112196&GoCTemplateCulture=en-CA"" target=""_blank"">More information</a>
Tourmaline Oil Corp,Oldman 10-24,Calgary,Alberta,53.855600000000003,-116.983480000000000,Oil and gas extraction (except oil sands),,kilotonnes of carbon dioxide equivalents (kt CO2 eq),0,2022,<a href=""https://indicators-map.canada.ca/App/Detail?id=0112269&GoCTemplateCulture=en-CA"" target=""_blank"">More information</a>
Nexans Canada Inc.,Usine de coulée continue de Montréal-Est,Montréal Est,Quebec,45.629100000000001,-73.513199999999998,"Copper Rolling, Drawing, Extruding and Alloying",,kilotonnes of carbon dioxide equivalents (kt CO2 eq),0,2022,<a href=""https://indicators-map.canada.ca/App/Detail?id=0111086&GoCTemplateCulture=en-CA"" target=""_blank"">More information</a>
NWT Power Corp,Rae Lakes Plant,Rae Lakes,Northwest Territories,0.000000000000000,0.000000000000000,Fossil-Fuel Electric Power Generation,,kilotonnes of carbon dioxide equivalents (kt CO2 eq),0,2022,<a href=""https://indicators-map.canada.ca/App/Detail?id=0110520&GoCTemplateCulture=en-CA"" target=""_blank"">More information</a>
Vale Canada Limited,Coleman Mine,Levack,Ontario,46.643500000000003,-81.383600000000001,Nickel-Copper Ore Mining,,kilotonnes of carbon dioxide equivalents (kt CO2 eq),0,2022,<a href=""https://indicators-map.canada.ca/App/Detail?id=0110906&GoCTemplateCulture=en-CA"" target=""_blank"">More information</a>
Signalta Resources Ltd.,Solettera Acme Co-Generation,Kneehill County,Alberta,51.506039999999999,-113.519620000000003,Fossil-Fuel Electric Power Generation,,kilotonnes of carbon dioxide equivalents (kt CO2 eq),0,2022,<a href=""https://indicators-map.canada.ca/App/Detail?id=0112124&GoCTemplateCulture=en-CA"" target=""_blank"">More information</a>
Husky Oil Operations Limited,WILDMERE BT 01-24-048-06W4,Calgary,Alberta,53.148760000000003,-110.739680000000007,Oil and gas extraction (except oil sands),,kilotonnes of carbon dioxide equivalents (kt CO2 eq),0,2022,<a href=""https://indicators-map.canada.ca/App/Detail?id=0112457&GoCTemplateCulture=en-CA"" target=""_blank"">More information</a>
Union Gas Limited,Natural Gas Distribution System,Chatham,Ontario,0.000000000000000,0.000000000000000,Natural Gas Distribution,,kilotonnes of carbon dioxide equivalents (kt CO2 eq),0,2022,<a href=""https://indicators-map.canada.ca/App/Detail?id=0110200&GoCTemplateCulture=en-CA"" target=""_blank"">More information</a>
Canadian Natural Resources Limited,Fox Valley Compressor Station 12-10-017-25W3,,Saskatchewan,50.421109999999999,-109.370329999999996,Oil and gas extraction (except oil sands),,kilotonnes of carbon dioxide equivalents (kt CO2 eq),0,2022,<a href=""https://indicators-map.canada.ca/App/Detail?id=0111662&GoCTemplateCulture=en-CA"" target=""_blank"">More information</a>
Electrolux Canada Corp.,Electrolux Canada Corporation,L'Assomption,Quebec,45.835900000000002,-73.414299999999997,Major Kitchen Appliance Manufacturing,,kilotonnes of carbon dioxide equivalents (kt CO2 eq),0,2022,<a href=""https://indicators-map.canada.ca/App/Detail?id=0110362&GoCTemplateCulture=en-CA"" target=""_blank"">More information</a>
Régie de gestion des matières résiduelles,Lieu enfouissement technique,Ragueneau,Quebec,49.160769999999999,-68.483789999999999,Waste Treatment and Disposal,,kilotonnes of carbon dioxide equivalents (kt CO2 eq),0,2022,<a href=""https://indicators-map.canada.ca/App/Detail?id=0112188&GoCTemplateCulture=en-CA"" target=""_blank"">More information</a>
Praxair Canada Inc.,"Praxair Canada Inc.,  Varennes Carbon Dioxide Plant",Varennes,Quebec,45.707200000000000,-73.422979999999995,Industrial Gas Manufacturing,,kilotonnes of carbon dioxide equivalents (kt CO2 eq),0,2022,<a href=""https://indicators-map.canada.ca/App/Detail?id=0110717&GoCTemplateCulture=en-CA"" target=""_blank"">More information</a>
AltaGas Ltd.,Loverna Sour Gas Plant 16-25,,Saskatchewan,51.690100000000001,-109.982900000000001,Oil and gas extraction (except oil sands),,kilotonnes of carbon dioxide equivalents (kt CO2 eq),0,2022,<a href=""https://indicators-map.canada.ca/App/Detail?id=0110995&GoCTemplateCulture=en-CA"" target=""_blank"">More information</a>
La Cie Matériaux de Construction BP Canada,BPCO Edmonton,Edmonton,Alberta,53.935720000000003,-113.381940000000000,Asphalt Shingle and Coating Material Manufacturing,,kilotonnes of carbon dioxide equivalents (kt CO2 eq),0,2022,<a href=""https://indicators-map.canada.ca/App/Detail?id=0111362&GoCTemplateCulture=en-CA"" target=""_blank"">More information</a>
Canadian Natural Resources Limited,Crooked Lake Gas Battery 10-22-062-22W5,,Alberta,54.379500000000000,-117.210700000000003,Oil and gas extraction (except oil sands),,kilotonnes of carbon dioxide equivalents (kt CO2 eq),0,2022,<a href=""https://indicators-map.canada.ca/App/Detail?id=0112434&GoCTemplateCulture=en-CA"" target=""_blank"">More information</a>
Ember Resources Inc.,Norfolk Gas Battery 13-13,,Alberta,51.049799999999998,-113.659899999999993,Oil and gas extraction (except oil sands),,kilotonnes of carbon dioxide equivalents (kt CO2 eq),0,2022,<a href=""https://indicators-map.canada.ca/App/Detail?id=0111869&GoCTemplateCulture=en-CA"" target=""_blank"">More information</a>
NWT Power Corp,Frank's Channel,Rae Edzo,Northwest Territories,0.000000000000000,0.000000000000000,Fossil-Fuel Electric Power Generation,,kilotonnes of carbon dioxide equivalents (kt CO2 eq),0,2022,<a href=""https://indicators-map.canada.ca/App/Detail?id=0110511&GoCTemplateCulture=en-CA"" target=""_blank"">More information</a>
Hydro-Québec,Centrale de Tracy,Tracy,Quebec,45.996000000000002,-73.172600000000003,Fossil-Fuel Electric Power Generation,,kilotonnes of carbon dioxide equivalents (kt CO2 eq),0,2022,<a href=""https://indicators-map.canada.ca/App/Detail?id=0110063&GoCTemplateCulture=en-CA"" target=""_blank"">More information</a>
ExxonMobil Canada Properties,Thebaud Platform,Offshore,Nova Scotia,43.011899999999997,-59.983300000000000,Oil and gas extraction (except oil sands),,kilotonnes of carbon dioxide equivalents (kt CO2 eq),0,2022,<a href=""https://indicators-map.canada.ca/App/Detail?id=0110393&GoCTemplateCulture=en-CA"" target=""_blank"">More information</a>
Canadian Natural Resources Limited,Midwinter Comp Stn A-013-F,Peace River District,British Columbia,59.506000000000000,-120.468999999999994,Oil and gas extraction (except oil sands),,kilotonnes of carbon dioxide equivalents (kt CO2 eq),0,2022,<a href=""https://indicators-map.canada.ca/App/Detail?id=0110956&GoCTemplateCulture=en-CA"" target=""_blank"">More information</a>
Crescent Point Energy Corp.,Forget Oil Battery 09-32,,Saskatchewan,49.604500000000002,-102.912499999999994,Oil and gas extraction (except oil sands),,kilotonnes of carbon dioxide equivalents (kt CO2 eq),0,2022,<a href=""https://indicators-map.canada.ca/App/Detail?id=0111149&GoCTemplateCulture=en-CA"" target=""_blank"">More information</a>
Ressources Métanor inc.,Mine Bachelor,Desmaraisville,Quebec,49.493400000000001,-76.124700000000004,Gold and Silver Ore Mining,,kilotonnes of carbon dioxide equivalents (kt CO2 eq),0,2022,<a href=""https://indicators-map.canada.ca/App/Detail?id=0110541&GoCTemplateCulture=en-CA"" target=""_blank"">More information</a>
PETRONAS Energy Canada Ltd.,Sasquatch B-32-E,Fort St John,British Columbia,57.110270000000000,-122.398570000000007,Oil and gas extraction (except oil sands),,kilotonnes of carbon dioxide equivalents (kt CO2 eq),0,2022,<a href=""https://indicators-map.canada.ca/App/Detail?id=0111427&GoCTemplateCulture=en-CA"" target=""_blank"">More information</a>
Tourmaline Oil Corp,Sundown Sour b-067-H,,British Columbia,55.634999999999998,-120.584000000000003,Oil and gas extraction (except oil sands),,kilotonnes of carbon dioxide equivalents (kt CO2 eq),0,2022,<a href=""https://indicators-map.canada.ca/App/Detail?id=0110965&GoCTemplateCulture=en-CA"" target=""_blank"">More information</a>
Whitecap Resources Inc.,101/13-05-030-25W3/0 (3A4-5) SWB,Kindersley,Saskatchewan,0.000000000000000,0.000000000000000,Oil and gas extraction (except oil sands),,kilotonnes of carbon dioxide equivalents (kt CO2 eq),0,2022,<a href=""https://indicators-map.canada.ca/App/Detail?id=0111614&GoCTemplateCulture=en-CA"" target=""_blank"">More information</a>
Husky Oil Operations Limited,Wainwright Multiwell Oil Battery 08-28-045-06W4,Wainwright No. 61,Alberta,52.907089999999997,-110.805149999999998,Oil and gas extraction (except oil sands),,kilotonnes of carbon dioxide equivalents (kt CO2 eq),0,2022,<a href=""https://indicators-map.canada.ca/App/Detail?id=0111563&GoCTemplateCulture=en-CA"" target=""_blank"">More information</a>
Torxen Energy Ltd.,Rosemary Sweet Gas Plant 08-21-021-15W4,,Alberta,50.795749999999998,-112.015780000000007,Oil and gas extraction (except oil sands),,kilotonnes of carbon dioxide equivalents (kt CO2 eq),0,2022,<a href=""https://indicators-map.canada.ca/App/Detail?id=0111293&GoCTemplateCulture=en-CA"" target=""_blank"">More information</a>
NWT Power Corp,Fort Resolution Plant,Fort Resolution,Northwest Territories,0.000000000000000,0.000000000000000,Fossil-Fuel Electric Power Generation,,kilotonnes of carbon dioxide equivalents (kt CO2 eq),0,2022,<a href=""https://indicators-map.canada.ca/App/Detail?id=0110508&GoCTemplateCulture=en-CA"" target=""_blank"">More information</a>
PPG Canada Inc.,"Works 84, Owen Sound Flat Glass Plant",Owen Sound,Ontario,0.000000000000000,0.000000000000000,Glass Manufacturing,,kilotonnes of carbon dioxide equivalents (kt CO2 eq),0,2022,<a href=""https://indicators-map.canada.ca/App/Detail?id=0110325&GoCTemplateCulture=en-CA"" target=""_blank"">More information</a>
Canadian Natural Resources Limited,Botha Sour Gas Plant 07-16,,Alberta,57.500940000000000,-118.740459999999999,Oil and gas extraction (except oil sands),,kilotonnes of carbon dioxide equivalents (kt CO2 eq),0,2022,<a href=""https://indicators-map.canada.ca/App/Detail?id=0111646&GoCTemplateCulture=en-CA"" target=""_blank"">More information</a>
ARC RESOURCES LTD.,Kakwa 04-22-062-04W6,,Alberta,54.372300000000003,-118.521699999999996,Oil and gas extraction (except oil sands),,kilotonnes of carbon dioxide equivalents (kt CO2 eq),0,2022,<a href=""https://indicators-map.canada.ca/App/Detail?id=0112418&GoCTemplateCulture=en-CA"" target=""_blank"">More information</a>
Tree Island Industries Ltd,Tree Island Industries,Richmond,British Columbia,49.187500000000000,-122.959000000000003,Steel Wire Drawing,,kilotonnes of carbon dioxide equivalents (kt CO2 eq),0,2022,<a href=""https://indicators-map.canada.ca/App/Detail?id=0110647&GoCTemplateCulture=en-CA"" target=""_blank"">More information</a>
Vermilion Energy Inc.,Oungre 01-28-002-14 W2M,Oungre,Saskatchewan,49.147190000000002,-103.812399999999997,Oil and gas extraction (except oil sands),,kilotonnes of carbon dioxide equivalents (kt CO2 eq),0,2022,<a href=""https://indicators-map.canada.ca/App/Detail?id=0112060&GoCTemplateCulture=en-CA"" target=""_blank"">More information</a>
Canadian Natural Resources Limited,Gold Creek Gas Battery 10-05,,Alberta,54.858730000000001,-118.569310000000002,Oil and gas extraction (except oil sands),,kilotonnes of carbon dioxide equivalents (kt CO2 eq),0,2022,<a href=""https://indicators-map.canada.ca/App/Detail?id=0111658&GoCTemplateCulture=en-CA"" target=""_blank"">More information</a>
Ember Resources Inc.,13-15-36-24-W4M Ghost Pine Comp Stn,,Alberta,52.098660000000002,-113.361999999999995,Oil and gas extraction (except oil sands),,kilotonnes of carbon dioxide equivalents (kt CO2 eq),0,2022,<a href=""https://indicators-map.canada.ca/App/Detail?id=0112123&GoCTemplateCulture=en-CA"" target=""_blank"">More information</a>
Canadian Natural Resources Limited,Hamburg 10-10,Manning,Alberta,57.318100000000001,-119.860100000000003,Oil and gas extraction (except oil sands),,kilotonnes of carbon dioxide equivalents (kt CO2 eq),0,2022,<a href=""https://indicators-map.canada.ca/App/Detail?id=0111214&GoCTemplateCulture=en-CA"" target=""_blank"">More information</a>
Tidewater Midstream and Infrastructure Ltd.,Acheson Sour Gas Plant 05-02-053-26W4,,Alberta,53.546610000000001,-113.735180000000000,Oil and gas extraction (except oil sands),,kilotonnes of carbon dioxide equivalents (kt CO2 eq),0,2022,<a href=""https://indicators-map.canada.ca/App/Detail?id=0111002&GoCTemplateCulture=en-CA"" target=""_blank"">More information</a>
UPM Kymmene Miramichi Inc.,UPM Kymmene Miramichi Inc.,Miramichi,New Brunswick,0.000000000000000,0.000000000000000,Paper (except Newsprint) Mills,,kilotonnes of carbon dioxide equivalents (kt CO2 eq),0,2022,<a href=""https://indicators-map.canada.ca/App/Detail?id=0110294&GoCTemplateCulture=en-CA"" target=""_blank"">More information</a>
Qulliq Energy Corporation,Iqaluit,Iqaluit,Nunavut,63.753749999999997,-68.507080000000002,Fossil-Fuel Electric Power Generation,,kilotonnes of carbon dioxide equivalents (kt CO2 eq),0,2022,<a href=""https://indicators-map.canada.ca/App/Detail?id=0111955&GoCTemplateCulture=en-CA"" target=""_blank"">More information</a>
Ontario Power Generation Inc.,Nanticoke Generating Station,nticoke,Ontario,42.799999999999997,-80.050299999999993,Fossil-Fuel Electric Power Generation,,kilotonnes of carbon dioxide equivalents (kt CO2 eq),0,2022,<a href=""https://indicators-map.canada.ca/App/Detail?id=0110198&GoCTemplateCulture=en-CA"" target=""_blank"">More information</a>
NWT Power Corp,Holman Plant,Holman,Northwest Territories,0.000000000000000,0.000000000000000,Fossil-Fuel Electric Power Generation,,kilotonnes of carbon dioxide equivalents (kt CO2 eq),0,2022,<a href=""https://indicators-map.canada.ca/App/Detail?id=0110512&GoCTemplateCulture=en-CA"" target=""_blank"">More information</a>
Torxen Energy Ltd.,Tide Lake Comp Stn 01-04-018-11W4,,Alberta,50.485300000000002,-111.449700000000007,Oil and gas extraction (except oil sands),,kilotonnes of carbon dioxide equivalents (kt CO2 eq),0,2022,<a href=""https://indicators-map.canada.ca/App/Detail?id=0111299&GoCTemplateCulture=en-CA"" target=""_blank"">More information</a>
TransAlta Generation Partnership,Mississauga Cogeneration Plant,Mississauga,Ontario,43.701599999999999,-79.643299999999996,Fossil-Fuel Electric Power Generation,,kilotonnes of carbon dioxide equivalents (kt CO2 eq),0,2022,<a href=""https://indicators-map.canada.ca/App/Detail?id=0110190&GoCTemplateCulture=en-CA"" target=""_blank"">More information</a>
Whitecap Resources Inc.,102/06-03-030-25W3/0 (1B6-4) SWB,Kindersley,Saskatchewan,51.538539999999998,-109.464110000000005,Oil and gas extraction (except oil sands),,kilotonnes of carbon dioxide equivalents (kt CO2 eq),0,2022,<a href=""https://indicators-map.canada.ca/App/Detail?id=0111891&GoCTemplateCulture=en-CA"" target=""_blank"">More information</a>
Ember Resources Inc.,04-15-040-24-W4M Clive ENH,Clive,Alberta,52.436100000000003,-113.384200000000007,Oil and gas extraction (except oil sands),,kilotonnes of carbon dioxide equivalents (kt CO2 eq),0,2022,<a href=""https://indicators-map.canada.ca/App/Detail?id=0110464&GoCTemplateCulture=en-CA"" target=""_blank"">More information</a>
Baytex Energy Ltd,11-28-030-25W3,,Saskatchewan,51.600140000000003,-109.471270000000004,Oil and gas extraction (except oil sands),,kilotonnes of carbon dioxide equivalents (kt CO2 eq),0,2022,<a href=""https://indicators-map.canada.ca/App/Detail?id=0112074&GoCTemplateCulture=en-CA"" target=""_blank"">More information</a>
SHELL CANADA LIMITED,Shelburne Basin Venture,Halifax,Nova Scotia,42.326110000000000,-62.939070000000001,Oil and Gas Contract Drilling,,kilotonnes of carbon dioxide equivalents (kt CO2 eq),0,2022,<a href=""https://indicators-map.canada.ca/App/Detail?id=0110898&GoCTemplateCulture=en-CA"" target=""_blank"">More information</a>
Whitecap Resources Inc.,Whiteside 01-05-030-25W3 GGS,Kerrobert,Saskatchewan,51.534959999999998,-109.476020000000005,Oil and gas extraction (except oil sands),,kilotonnes of carbon dioxide equivalents (kt CO2 eq),0,2022,<a href=""https://indicators-map.canada.ca/App/Detail?id=0112403&GoCTemplateCulture=en-CA"" target=""_blank"">More information</a>
Canadian Natural Resources Limited,Prespatou  Comp Stn C-059-B,,British Columbia,57.048000000000002,-121.233999999999995,Oil and gas extraction (except oil sands),,kilotonnes of carbon dioxide equivalents (kt CO2 eq),0,2022,<a href=""https://indicators-map.canada.ca/App/Detail?id=0110971&GoCTemplateCulture=en-CA"" target=""_blank"">More information</a>
Rio Tinto Alcan,Usine Shawinigan,Shawinigan,Quebec,46.558599999999998,-72.739699999999999,Primary Production of Alumina and Aluminum,,kilotonnes of carbon dioxide equivalents (kt CO2 eq),0,2022,<a href=""https://indicators-map.canada.ca/App/Detail?id=0110308&GoCTemplateCulture=en-CA"" target=""_blank"">More information</a>
Torxen Energy Ltd.,Sandhills (Ald East) Comp Stn 13-03-016-13W4,Sandhills,Alberta,50.322780000000002,-111.720219999999998,Oil and gas extraction (except oil sands),,kilotonnes of carbon dioxide equivalents (kt CO2 eq),0,2022,<a href=""https://indicators-map.canada.ca/App/Detail?id=0112247&GoCTemplateCulture=en-CA"" target=""_blank"">More information</a>
Crescent Point Energy Corp.,Bromhead Oil SWB 13-36,,Saskatchewan,49.171900000000001,-103.628659999999996,Oil and gas extraction (except oil sands),,kilotonnes of carbon dioxide equivalents (kt CO2 eq),0,2022,<a href=""https://indicators-map.canada.ca/App/Detail?id=0111570&GoCTemplateCulture=en-CA"" target=""_blank"">More information</a>
Shell Canada Energy,Shell Albian Sands Muskeg River Mine,Fort McMurray,Alberta,57.244399999999999,-111.516999999999996,Non-Conventional Oil Extraction,,kilotonnes of carbon dioxide equivalents (kt CO2 eq),0,2022,<a href=""https://indicators-map.canada.ca/App/Detail?id=0110197&GoCTemplateCulture=en-CA"" target=""_blank"">More information</a>
Canadian Natural Resources Limited,Dunvegan 10-04,,Alberta,54.685600000000001,-117.414400000000001,Oil and gas extraction (except oil sands),,kilotonnes of carbon dioxide equivalents (kt CO2 eq),0,2022,<a href=""https://indicators-map.canada.ca/App/Detail?id=0111197&GoCTemplateCulture=en-CA"" target=""_blank"">More information</a>
Ontario Power Generation Inc.,Thunder Bay Generating Station,Thunder Bay,Ontario,48.359200000000001,-89.221900000000005,Fossil-Fuel Electric Power Generation,,kilotonnes of carbon dioxide equivalents (kt CO2 eq),0,2022,<a href=""https://indicators-map.canada.ca/App/Detail?id=0110287&GoCTemplateCulture=en-CA"" target=""_blank"">More information</a>
Glencore Canada Corporation,Brunswick Smelter,Belledune,New Brunswick,47.899200000000000,-65.833900000000000,Non-Ferrous Metal (except Aluminum) Smelting and Refining,,kilotonnes of carbon dioxide equivalents (kt CO2 eq),0,2022,<a href=""https://indicators-map.canada.ca/App/Detail?id=0110035&GoCTemplateCulture=en-CA"" target=""_blank"">More information</a>
Whitecap Resources Inc.,101/01-29-033-23W3/0 (3A1-29) SWB,Oakdale,Saskatchewan,0.000000000000000,0.000000000000000,Oil and gas extraction (except oil sands),,kilotonnes of carbon dioxide equivalents (kt CO2 eq),0,2022,<a href=""https://indicators-map.canada.ca/App/Detail?id=0111607&GoCTemplateCulture=en-CA"" target=""_blank"">More information</a>
Paramount Resources Ltd.,North Bingley (Willesden Green) Facility,Rocky Mountain House,Alberta,52.544800000000002,-110.713600000000000,Oil and gas extraction (except oil sands),,kilotonnes of carbon dioxide equivalents (kt CO2 eq),0,2022,<a href=""https://indicators-map.canada.ca/App/Detail?id=0111218&GoCTemplateCulture=en-CA"" target=""_blank"">More information</a>
Canadian Natural Resources Limited,July Lake Comp Stn A-071-G,,British Columbia,59.644199999999998,-120.629199999999997,Oil and gas extraction (except oil sands),,kilotonnes of carbon dioxide equivalents (kt CO2 eq),0,2022,<a href=""https://indicators-map.canada.ca/App/Detail?id=0112281&GoCTemplateCulture=en-CA"" target=""_blank"">More information</a>
Irving Paper Limited,Courtenay Bay Generating Station #2,Saint John,New Brunswick,0.000000000000000,0.000000000000000,Steam and Air-Conditioning Supply,,kilotonnes of carbon dioxide equivalents (kt CO2 eq),0,2022,<a href=""https://indicators-map.canada.ca/App/Detail?id=0110081&GoCTemplateCulture=en-CA"" target=""_blank"">More information</a>
Timminco Limited,"Timminco Metals, Haley Plant",Haley,Ontario,0.000000000000000,0.000000000000000,Non-Ferrous Metal (except Aluminum) Smelting and Refining,,kilotonnes of carbon dioxide equivalents (kt CO2 eq),0,2022,<a href=""https://indicators-map.canada.ca/App/Detail?id=0110288&GoCTemplateCulture=en-CA"" target=""_blank"">More information</a>
Ovintiv Canada ULC,Kaybob Gas Plant 05-31,Grande Prairie,Alberta,54.404960000000003,-117.597520000000003,Oil and gas extraction (except oil sands),,kilotonnes of carbon dioxide equivalents (kt CO2 eq),0,2022,<a href=""https://indicators-map.canada.ca/App/Detail?id=0111393&GoCTemplateCulture=en-CA"" target=""_blank"">More information</a>
Baytex Energy Ltd,HARMON VALLEY 01-02-084-19W5,Harmon Valley,Alberta,56.248339999999999,-116.875180000000000,Oil and gas extraction (except oil sands),,kilotonnes of carbon dioxide equivalents (kt CO2 eq),0,2022,<a href=""https://indicators-map.canada.ca/App/Detail?id=0111444&GoCTemplateCulture=en-CA"" target=""_blank"">More information</a>
Cenovus Energy Inc.,Placid Gas Battery 06-31,,Alberta,54.229399999999998,-117.589200000000005,Oil and gas extraction (except oil sands),,kilotonnes of carbon dioxide equivalents (kt CO2 eq),0,2022,<a href=""https://indicators-map.canada.ca/App/Detail?id=0111272&GoCTemplateCulture=en-CA"" target=""_blank"">More information</a>
Whitecap Resources Inc.,101/12-05-030-24W3/0 (2D12-4) SWB,Kindersley,Saskatchewan,0.000000000000000,0.000000000000000,Oil and gas extraction (except oil sands),,kilotonnes of carbon dioxide equivalents (kt CO2 eq),0,2022,<a href=""https://indicators-map.canada.ca/App/Detail?id=0111612&GoCTemplateCulture=en-CA"" target=""_blank"">More information</a>
Ramshorn Canada Investments limited,D-68 Sales PL,British Columbia,British Columbia,0.000000000000000,0.000000000000000,Conventional Oil and Gas Extraction,,kilotonnes of carbon dioxide equivalents (kt CO2 eq),0,2022,<a href=""https://indicators-map.canada.ca/App/Detail?id=0110733&GoCTemplateCulture=en-CA"" target=""_blank"">More information</a>
Whitecap Resources Inc.,WHITESIDE 15-32-29-25W3,Kindersley,Saskatchewan,0.000000000000000,0.000000000000000,Oil and gas extraction (except oil sands),,kilotonnes of carbon dioxide equivalents (kt CO2 eq),0,2022,<a href=""https://indicators-map.canada.ca/App/Detail?id=0111627&GoCTemplateCulture=en-CA"" target=""_blank"">More information</a>
Devon Canada Corporation,Devon Elmworth Gas Gathering System,,Alberta,0.000000000000000,0.000000000000000,Conventional Oil and Gas Extraction,,kilotonnes of carbon dioxide equivalents (kt CO2 eq),0,2022,<a href=""https://indicators-map.canada.ca/App/Detail?id=0110449&GoCTemplateCulture=en-CA"" target=""_blank"">More information</a>
Cardinal Energy Ltd.,Midale Complex 07-12-06-11W2,Weyburn,Saskatchewan,49.455480000000001,-103.360159999999993,Oil and gas extraction (except oil sands),,kilotonnes of carbon dioxide equivalents (kt CO2 eq),0,2022,<a href=""https://indicators-map.canada.ca/App/Detail?id=0111215&GoCTemplateCulture=en-CA"" target=""_blank"">More information</a>
Baytex Energy Ltd,Harmon Valley 04-14-084-19W5,Harmon Valley,Alberta,56.277470000000001,-116.896730000000005,Oil and gas extraction (except oil sands),,kilotonnes of carbon dioxide equivalents (kt CO2 eq),0,2022,<a href=""https://indicators-map.canada.ca/App/Detail?id=0111623&GoCTemplateCulture=en-CA"" target=""_blank"">More information</a>
Cenovus Energy Inc.,Suffield B2 Comp Stn 14-15,,Alberta,50.701400000000000,-110.480950000000007,Oil and gas extraction (except oil sands),,kilotonnes of carbon dioxide equivalents (kt CO2 eq),0,2022,<a href=""https://indicators-map.canada.ca/App/Detail?id=0111295&GoCTemplateCulture=en-CA"" target=""_blank"">More information</a>
Husky Oil Operations Limited,Pikes Peak Thermal 04-06-050-23W3,Lloydminster,Saskatchewan,53.279739999999997,-109.366759999999999,Oil and gas extraction (except oil sands),,kilotonnes of carbon dioxide equivalents (kt CO2 eq),0,2022,<a href=""https://indicators-map.canada.ca/App/Detail?id=0110224&GoCTemplateCulture=en-CA"" target=""_blank"">More information</a>
Whitecap Resources Inc.,101/12-28-029-25W3/0 (4C12-27) SWB,Kindersley,Saskatchewan,0.000000000000000,0.000000000000000,Oil and gas extraction (except oil sands),,kilotonnes of carbon dioxide equivalents (kt CO2 eq),0,2022,<a href=""https://indicators-map.canada.ca/App/Detail?id=0111613&GoCTemplateCulture=en-CA"" target=""_blank"">More information</a>
Enerplus Corporation,West Tommy Lakes Comp Station 3 A-029-I,,British Columbia,57.685000000000002,-122.102999999999994,Oil and gas extraction (except oil sands),,kilotonnes of carbon dioxide equivalents (kt CO2 eq),0,2022,<a href=""https://indicators-map.canada.ca/App/Detail?id=0110972&GoCTemplateCulture=en-CA"" target=""_blank"">More information</a>
Vermilion Energy Inc.,Alameda 09-08-004-03 W2M,Alameda,Saskatchewan,49.284480000000002,-102.368200000000002,Oil and gas extraction (except oil sands),,kilotonnes of carbon dioxide equivalents (kt CO2 eq),0,2022,<a href=""https://indicators-map.canada.ca/App/Detail?id=0112227&GoCTemplateCulture=en-CA"" target=""_blank"">More information</a>
Long Run Exploration Ltd,LRE - Puskwaskau 03-26,,Alberta,55.432800000000000,-118.041700000000006,Oil and gas extraction (except oil sands),,kilotonnes of carbon dioxide equivalents (kt CO2 eq),0,2022,<a href=""https://indicators-map.canada.ca/App/Detail?id=0111305&GoCTemplateCulture=en-CA"" target=""_blank"">More information</a>
Teine Energy Ltd.,Dodsland 10-8-31-20 W3,Winslow,Saskatchewan,51.643079999999998,-108.800809999999998,Oil and gas extraction (except oil sands),,kilotonnes of carbon dioxide equivalents (kt CO2 eq),0,2022,<a href=""https://indicators-map.canada.ca/App/Detail?id=0112109&GoCTemplateCulture=en-CA"" target=""_blank"">More information</a>
Norsk Hydro Canada Inc,Norsk Hydro Canada Inc,Bécancour,Quebec,0.000000000000000,0.000000000000000,Non-Ferrous Metal (except Aluminum) Smelting and Refining,,kilotonnes of carbon dioxide equivalents (kt CO2 eq),0,2022,<a href=""https://indicators-map.canada.ca/App/Detail?id=0110205&GoCTemplateCulture=en-CA"" target=""_blank"">More information</a>
Baytex Energy Ltd,01-01-030-25W3,,Saskatchewan,51.539160000000003,-109.381680000000003,Oil and gas extraction (except oil sands),,kilotonnes of carbon dioxide equivalents (kt CO2 eq),0,2022,<a href=""https://indicators-map.canada.ca/App/Detail?id=0112068&GoCTemplateCulture=en-CA"" target=""_blank"">More information</a>
TERIC Power Ltd,Killam Sunrise,Hardisty,Alberta,52.756039999999999,-111.279719999999998,Fossil-Fuel Electric Power Generation,,kilotonnes of carbon dioxide equivalents (kt CO2 eq),0,2022,<a href=""https://indicators-map.canada.ca/App/Detail?id=0112126&GoCTemplateCulture=en-CA"" target=""_blank"">More information</a>
Keyera Corp,Chinchaga Gas Plant,Manning,Alberta,0.000000000000000,0.000000000000000,Conventional Oil and Gas Extraction,,kilotonnes of carbon dioxide equivalents (kt CO2 eq),0,2022,<a href=""https://indicators-map.canada.ca/App/Detail?id=0110483&GoCTemplateCulture=en-CA"" target=""_blank"">More information</a>
BP Canada Energy Group ULC,Aspy D-11,Offshore,Nova Scotia,42.500030000000002,-60.175220000000003,Oil and gas extraction (except oil sands),,kilotonnes of carbon dioxide equivalents (kt CO2 eq),0,2022,<a href=""https://indicators-map.canada.ca/App/Detail?id=0111883&GoCTemplateCulture=en-CA"" target=""_blank"">More information</a>
Repsol Oil & Gas Canada Inc.,Wilrich 16-27 Compressor Station,,Alberta,53.437489999999997,-116.559659999999994,Oil and gas extraction (except oil sands),,kilotonnes of carbon dioxide equivalents (kt CO2 eq),0,2022,<a href=""https://indicators-map.canada.ca/App/Detail?id=0111596&GoCTemplateCulture=en-CA"" target=""_blank"">More information</a>
Whitecap Resources Inc.,TORC et Al Weir Hill Oil Battery 11-25-005-06W2,,Saskatchewan,49.415509999999998,-102.693250000000006,Oil and gas extraction (except oil sands),,kilotonnes of carbon dioxide equivalents (kt CO2 eq),0,2022,<a href=""https://indicators-map.canada.ca/App/Detail?id=0111605&GoCTemplateCulture=en-CA"" target=""_blank"">More information</a>
TORC Oil & Gas Ltd.,TORC Pinto Oil Battery 02-25-002-03W2,,Saskatchewan,49.148359999999997,-102.283230000000003,Oil and gas extraction (except oil sands),,kilotonnes of carbon dioxide equivalents (kt CO2 eq),0,2022,<a href=""https://indicators-map.canada.ca/App/Detail?id=0111604&GoCTemplateCulture=en-CA"" target=""_blank"">More information</a>
Teine Energy Ltd.,Plato 04-07 Bty,,Saskatchewan,51.287210000000002,-108.672839999999994,Oil and gas extraction (except oil sands),,kilotonnes of carbon dioxide equivalents (kt CO2 eq),0,2022,<a href=""https://indicators-map.canada.ca/App/Detail?id=0112345&GoCTemplateCulture=en-CA"" target=""_blank"">More information</a>
"Norampac Red Rock, a Division of Cascades Canada Inc.",Norampac Red Rock,Red Rock,Ontario,0.000000000000000,0.000000000000000,Paper (except Newsprint) Mills,,kilotonnes of carbon dioxide equivalents (kt CO2 eq),0,2022,<a href=""https://indicators-map.canada.ca/App/Detail?id=0110245&GoCTemplateCulture=en-CA"" target=""_blank"">More information</a>
Signalta Resources Ltd.,Fort MacLeod Power Plant 05-30,Fort Macleod,Alberta,49.763849999999998,-113.387870000000007,Fossil-Fuel Electric Power Generation,,kilotonnes of carbon dioxide equivalents (kt CO2 eq),0,2022,<a href=""https://indicators-map.canada.ca/App/Detail?id=0111935&GoCTemplateCulture=en-CA"" target=""_blank"">More information</a>
Health Sciences Centre,Health Sciences Centre,Winnipeg,Manitoba,0.000000000000000,0.000000000000000,General (except Paediatric) Hospitals,,kilotonnes of carbon dioxide equivalents (kt CO2 eq),0,2022,<a href=""https://indicators-map.canada.ca/App/Detail?id=0110367&GoCTemplateCulture=en-CA"" target=""_blank"">More information</a>
Sun Gro Farms Inc.,Sun Gro Farms Inc.,Kingsville,Ontario,42.081789999999998,-82.740009999999998,Other Food Crops Grown Under Cover,,kilotonnes of carbon dioxide equivalents (kt CO2 eq),0,2022,<a href=""https://indicators-map.canada.ca/App/Detail?id=0111838&GoCTemplateCulture=en-CA"" target=""_blank"">More information</a>
Husky Oil Operations Limited,Ansell MWB 03-06-049-18W5,Yellowhead County,Alberta,53.195450000000001,-116.626660000000001,Oil and gas extraction (except oil sands),,kilotonnes of carbon dioxide equivalents (kt CO2 eq),0,2022,<a href=""https://indicators-map.canada.ca/App/Detail?id=0112318&GoCTemplateCulture=en-CA"" target=""_blank"">More information</a>
Obsidian Energy Ltd.,Cadotte Bitumen Battery 03-29,Calgary,Alberta,56.219299999999997,-116.811329999999998,Oil and gas extraction (except oil sands),,kilotonnes of carbon dioxide equivalents (kt CO2 eq),0,2022,<a href=""https://indicators-map.canada.ca/App/Detail?id=0112007&GoCTemplateCulture=en-CA"" target=""_blank"">More information</a>
Quicksilver Resources Canada Inc.,Fortune Creek LFO,Fort Nelson,British Columbia,59.802100000000003,-122.566000000000003,Conventional Oil and Gas Extraction,,kilotonnes of carbon dioxide equivalents (kt CO2 eq),0,2022,<a href=""https://indicators-map.canada.ca/App/Detail?id=0110764&GoCTemplateCulture=en-CA"" target=""_blank"">More information</a>
Vermilion Energy Inc.,Pinto 14-26-002-04 W2M,Pinto,Saskatchewan,49.157370000000000,-110.443039999999996,Oil and gas extraction (except oil sands),,kilotonnes of carbon dioxide equivalents (kt CO2 eq),0,2022,<a href=""https://indicators-map.canada.ca/App/Detail?id=0112241&GoCTemplateCulture=en-CA"" target=""_blank"">More information</a>
Canadian Natural Resources Limited,Ferrier Oil Battery 10-36-038-08W5,,Alberta,52.313609999999997,-115.010170000000002,Oil and gas extraction (except oil sands),,kilotonnes of carbon dioxide equivalents (kt CO2 eq),0,2022,<a href=""https://indicators-map.canada.ca/App/Detail?id=0112258&GoCTemplateCulture=en-CA"" target=""_blank"">More information</a>
Vale Canada Limited,Clarabelle Mill,Copper Cliff,Ontario,46.494999999999997,-81.056100000000001,Nickel-Copper Ore Mining,,kilotonnes of carbon dioxide equivalents (kt CO2 eq),0,2022,<a href=""https://indicators-map.canada.ca/App/Detail?id=0110905&GoCTemplateCulture=en-CA"" target=""_blank"">More information</a>
Obsidian Energy Ltd.,West Seal Battery 11-26,Calgary,Alberta,56.139809999999997,-116.705879999999993,Oil and gas extraction (except oil sands),,kilotonnes of carbon dioxide equivalents (kt CO2 eq),0,2022,<a href=""https://indicators-map.canada.ca/App/Detail?id=0111709&GoCTemplateCulture=en-CA"" target=""_blank"">More information</a>
Paramount Resources Ltd.,EAST GARRINGTON PLANT,,Alberta,51.918999999999997,-114.394599999999997,Oil and gas extraction (except oil sands),,kilotonnes of carbon dioxide equivalents (kt CO2 eq),0,2022,<a href=""https://indicators-map.canada.ca/App/Detail?id=0111170&GoCTemplateCulture=en-CA"" target=""_blank"">More information</a>
Crescent Point Energy Corp.,Whitemud SWB 09-15,,Saskatchewan,49.474649999999997,-108.609690000000001,Oil and gas extraction (except oil sands),,kilotonnes of carbon dioxide equivalents (kt CO2 eq),0,2022,<a href=""https://indicators-map.canada.ca/App/Detail?id=0111424&GoCTemplateCulture=en-CA"" target=""_blank"">More information</a>
Ember Resources Inc.,GADSBY 12-15-037-19W4,Stettler,Alberta,52.180900000000001,-112.647599999999997,Oil and gas extraction (except oil sands),,kilotonnes of carbon dioxide equivalents (kt CO2 eq),0,2022,<a href=""https://indicators-map.canada.ca/App/Detail?id=0112121&GoCTemplateCulture=en-CA"" target=""_blank"">More information</a>
Cleo Energy Corp.,Provost Battery 15-2-37-7W4,,Alberta,52.157429999999998,-110.892600000000002,Oil and gas extraction (except oil sands),,kilotonnes of carbon dioxide equivalents (kt CO2 eq),0,2022,<a href=""https://indicators-map.canada.ca/App/Detail?id=0112098&GoCTemplateCulture=en-CA"" target=""_blank"">More information</a>
Canlin Energy Corporation,Panther 10-13 Battery,Webb,Alberta,50.260880000000000,-108.213220000000007,Oil and gas extraction (except oil sands),,kilotonnes of carbon dioxide equivalents (kt CO2 eq),0,2022,<a href=""https://indicators-map.canada.ca/App/Detail?id=0111410&GoCTemplateCulture=en-CA"" target=""_blank"">More information</a>
Taqa North Ltd.,Pembina Blue Rapids 04-08-047-09W5,Pembina,Alberta,53.034160000000000,-115.290459999999996,Oil and gas extraction (except oil sands),,kilotonnes of carbon dioxide equivalents (kt CO2 eq),0,2022,<a href=""https://indicators-map.canada.ca/App/Detail?id=0111700&GoCTemplateCulture=en-CA"" target=""_blank"">More information</a>
ESCO Limited,ESCO Limited,Port Hope,Ontario,0.000000000000000,0.000000000000000,Steel Foundries,,kilotonnes of carbon dioxide equivalents (kt CO2 eq),0,2022,<a href=""https://indicators-map.canada.ca/App/Detail?id=0110363&GoCTemplateCulture=en-CA"" target=""_blank"">More information</a>
Mines Wabush,Mines Wabush - Sept-Iles,SeptÎles,Quebec,50.161600000000000,-66.483800000000002,Iron Ore Mining,,kilotonnes of carbon dioxide equivalents (kt CO2 eq),0,2022,<a href=""https://indicators-map.canada.ca/App/Detail?id=0110189&GoCTemplateCulture=en-CA"" target=""_blank"">More information</a>
Obsidian Energy Ltd.,West Seal Bitumen Battery 13-30,Calgary,Alberta,56.143479999999997,-116.660290000000003,Oil and gas extraction (except oil sands),,kilotonnes of carbon dioxide equivalents (kt CO2 eq),0,2022,<a href=""https://indicators-map.canada.ca/App/Detail?id=0112005&GoCTemplateCulture=en-CA"" target=""_blank"">More information</a>
Canadian Natural Resources Limited,Manatokan Custom Treating Facility 9-14,La Corey,Alberta,54.455100000000002,-111.092200000000005,Oil and gas extraction (except oil sands),,kilotonnes of carbon dioxide equivalents (kt CO2 eq),0,2022,<a href=""https://indicators-map.canada.ca/App/Detail?id=0111310&GoCTemplateCulture=en-CA"" target=""_blank"">More information</a>
Millar Western Forest Products Ltd.,Fox Creek Division,Fox Creek,Alberta,54.394900000000000,-116.808999999999997,Sawmills (except Shingle and Shake Mills),,kilotonnes of carbon dioxide equivalents (kt CO2 eq),0,2022,<a href=""https://indicators-map.canada.ca/App/Detail?id=0112136&GoCTemplateCulture=en-CA"" target=""_blank"">More information</a>
Ember Resources Inc.,Elnora Gas Battery 15-32,,Alberta,52.053800000000003,-113.251900000000006,Oil and gas extraction (except oil sands),,kilotonnes of carbon dioxide equivalents (kt CO2 eq),0,2022,<a href=""https://indicators-map.canada.ca/App/Detail?id=0112125&GoCTemplateCulture=en-CA"" target=""_blank"">More information</a>
Steinbach Class 1 Waste Disposal Ground,Steinbach Class 1 Waste Disposal Ground,Steinbach,Manitoba,49.498469999999998,-96.679029999999997,Waste Treatment and Disposal,,kilotonnes of carbon dioxide equivalents (kt CO2 eq),0,2022,<a href=""https://indicators-map.canada.ca/App/Detail?id=0111630&GoCTemplateCulture=en-CA"" target=""_blank"">More information</a>
TELUS Communications Company,Edmonton TELUS Toll,Edmonton,Alberta,53.543239999999997,-113.491709999999998,"Data Processing, Hosting, and Related Services",,kilotonnes of carbon dioxide equivalents (kt CO2 eq),0,2022,<a href=""https://indicators-map.canada.ca/App/Detail?id=0111853&GoCTemplateCulture=en-CA"" target=""_blank"">More information</a>
Surge Energy Inc.,Shaunavon Oil Battery 01-15,,Saskatchewan,49.466149999999999,-108.476860000000002,Oil and gas extraction (except oil sands),,kilotonnes of carbon dioxide equivalents (kt CO2 eq),0,2022,<a href=""https://indicators-map.canada.ca/App/Detail?id=0111408&GoCTemplateCulture=en-CA"" target=""_blank"">More information</a>
Long Run Exploration Ltd,LRE - Dreau 14-11,,Alberta,55.751100000000001,-117.145700000000005,Oil and gas extraction (except oil sands),,kilotonnes of carbon dioxide equivalents (kt CO2 eq),0,2022,<a href=""https://indicators-map.canada.ca/App/Detail?id=0110988&GoCTemplateCulture=en-CA"" target=""_blank"">More information</a>
AECO Gas Storage Partnership,Countess Gas Storage Facility,Hussar,Alberta,50.966900000000003,-112.664900000000003,Oil and gas extraction (except oil sands),,kilotonnes of carbon dioxide equivalents (kt CO2 eq),0,2022,<a href=""https://indicators-map.canada.ca/App/Detail?id=0112396&GoCTemplateCulture=en-CA"" target=""_blank"">More information</a>
Crescent Point Energy Corp.,Viewfield Oil SWB 13-12,,Saskatchewan,49.637200000000000,-103.245450000000005,Oil and gas extraction (except oil sands),,kilotonnes of carbon dioxide equivalents (kt CO2 eq),0,2022,<a href=""https://indicators-map.canada.ca/App/Detail?id=0111574&GoCTemplateCulture=en-CA"" target=""_blank"">More information</a>
Crescent Point Energy Corp.,Viewfield Oil SWB 03-18,,Saskatchewan,49.640940000000001,-102.675250000000005,Oil and gas extraction (except oil sands),,kilotonnes of carbon dioxide equivalents (kt CO2 eq),0,2022,<a href=""https://indicators-map.canada.ca/App/Detail?id=0111589&GoCTemplateCulture=en-CA"" target=""_blank"">More information</a>
NWT Power Corp,Lutsel K'e Plant,Lutsel K'e,Northwest Territories,0.000000000000000,0.000000000000000,Fossil-Fuel Electric Power Generation,,kilotonnes of carbon dioxide equivalents (kt CO2 eq),0,2022,<a href=""https://indicators-map.canada.ca/App/Detail?id=0110516&GoCTemplateCulture=en-CA"" target=""_blank"">More information</a>
Paramount Resources Ltd.,PARA KAYBOB 12-10-064-19W5,,Alberta,54.525100000000002,-116.796199999999999,Oil and gas extraction (except oil sands),,kilotonnes of carbon dioxide equivalents (kt CO2 eq),0,2022,<a href=""https://indicators-map.canada.ca/App/Detail?id=0110767&GoCTemplateCulture=en-CA"" target=""_blank"">More information</a>
Richmond Plywood Corporation Limited,Richmond Plywood Corporation Limited,Rcihmond,British Columbia,0.000000000000000,0.000000000000000,Softwood Veneer and Plywood Mills,,kilotonnes of carbon dioxide equivalents (kt CO2 eq),0,2022,<a href=""https://indicators-map.canada.ca/App/Detail?id=0110543&GoCTemplateCulture=en-CA"" target=""_blank"">More information</a>
XTO Energy Canada ULC,Fir 01-32,Calgary,Alberta,54.139519999999997,-117.254509999999996,Oil and gas extraction (except oil sands),,kilotonnes of carbon dioxide equivalents (kt CO2 eq),0,2022,<a href=""https://indicators-map.canada.ca/App/Detail?id=0111904&GoCTemplateCulture=en-CA"" target=""_blank"">More information</a>
Husky Oil Operations Limited,HUSKY 102/01-12-052-04W4/00,Islay,Alberta,53.468629999999997,-110.473950000000002,Oil and gas extraction (except oil sands),,kilotonnes of carbon dioxide equivalents (kt CO2 eq),0,2022,<a href=""https://indicators-map.canada.ca/App/Detail?id=0112341&GoCTemplateCulture=en-CA"" target=""_blank"">More information</a>
Strathcona Resources Ltd.,Resthaven Gas Battery 02-16,,Alberta,54.184780000000003,-118.080990000000000,Oil and gas extraction (except oil sands),,kilotonnes of carbon dioxide equivalents (kt CO2 eq),0,2022,<a href=""https://indicators-map.canada.ca/App/Detail?id=0111373&GoCTemplateCulture=en-CA"" target=""_blank"">More information</a>
Border Paving Ltd.,Portable Plant 020002,Bamber Pit,Alberta,52.365299999999998,-113.831900000000005,"Highway, Street and Bridge Construction",,kilotonnes of carbon dioxide equivalents (kt CO2 eq),0,2022,<a href=""https://indicators-map.canada.ca/App/Detail?id=0110886&GoCTemplateCulture=en-CA"" target=""_blank"">More information</a>
Paramount Resources Ltd.,Zama Plant 4,Zama,Alberta,59.063119999999998,-118.875730000000004,Oil and gas extraction (except oil sands),,kilotonnes of carbon dioxide equivalents (kt CO2 eq),0,2022,<a href=""https://indicators-map.canada.ca/App/Detail?id=0110326&GoCTemplateCulture=en-CA"" target=""_blank"">More information</a>
Whitecap Resources Inc.,HOME QUARTER 1-5-30-25W3 GGS,Kindersley,Saskatchewan,0.000000000000000,0.000000000000000,Oil and gas extraction (except oil sands),,kilotonnes of carbon dioxide equivalents (kt CO2 eq),0,2022,<a href=""https://indicators-map.canada.ca/App/Detail?id=0111625&GoCTemplateCulture=en-CA"" target=""_blank"">More information</a>
Crescent Point Energy Corp.,Whitemud Oil MWB 03-21,,Saskatchewan,49.394599999999997,-108.643180000000001,Oil and gas extraction (except oil sands),,kilotonnes of carbon dioxide equivalents (kt CO2 eq),0,2022,<a href=""https://indicators-map.canada.ca/App/Detail?id=0111566&GoCTemplateCulture=en-CA"" target=""_blank"">More information</a>
Spur Petroleum Ltd.,Marten Hills 15-12-074-25W4,,Alberta,55.400810000000000,-113.708510000000004,Oil and gas extraction (except oil sands),,kilotonnes of carbon dioxide equivalents (kt CO2 eq),0,2022,<a href=""https://indicators-map.canada.ca/App/Detail?id=0112480&GoCTemplateCulture=en-CA"" target=""_blank"">More information</a>
Whitecap Resources Inc.,101/13-27-032-24W3/0 (3B3-27) SWB,Oakdale,Saskatchewan,51.767069999999997,-109.326589999999996,Oil and gas extraction (except oil sands),,kilotonnes of carbon dioxide equivalents (kt CO2 eq),0,2022,<a href=""https://indicators-map.canada.ca/App/Detail?id=0111616&GoCTemplateCulture=en-CA"" target=""_blank"">More information</a>
Regional District of Bulkley-Nechako,Knockholt Sub-Regional Landfill,"Rural Closest Town Houston, Bc",British Columbia,54.440390000000001,-126.529430000000005,Waste Treatment and Disposal,,kilotonnes of carbon dioxide equivalents (kt CO2 eq),0,2022,<a href=""https://indicators-map.canada.ca/App/Detail?id=0111636&GoCTemplateCulture=en-CA"" target=""_blank"">More information</a>
Progress Energy Canada Ltd.,Progress Caribou C-016-F/094-G-07,Fort St John,British Columbia,57.347329999999999,-122.823549999999997,Oil and gas extraction (except oil sands),,kilotonnes of carbon dioxide equivalents (kt CO2 eq),0,2022,<a href=""https://indicators-map.canada.ca/App/Detail?id=0111429&GoCTemplateCulture=en-CA"" target=""_blank"">More information</a>
Canadian Natural Resources Limited,Flat Rock Comp Stn 15-20,,British Columbia,56.390050000000002,-120.651269999999997,Oil and gas extraction (except oil sands),,kilotonnes of carbon dioxide equivalents (kt CO2 eq),0,2022,<a href=""https://indicators-map.canada.ca/App/Detail?id=0111359&GoCTemplateCulture=en-CA"" target=""_blank"">More information</a>
Torxen Energy Ltd.,Alderson 13-21-15-11 Plant,,Alberta,50.278829999999999,-111.468130000000002,Oil and gas extraction (except oil sands),,kilotonnes of carbon dioxide equivalents (kt CO2 eq),0,2022,<a href=""https://indicators-map.canada.ca/App/Detail?id=0112405&GoCTemplateCulture=en-CA"" target=""_blank"">More information</a>
Storm Resources Ltd,SRL BUICKCREEK D-36-L/094-A-14 003,,British Columbia,56.947920000000003,-121.440619999999996,Oil and gas extraction (except oil sands),,kilotonnes of carbon dioxide equivalents (kt CO2 eq),0,2022,<a href=""https://indicators-map.canada.ca/App/Detail?id=0112280&GoCTemplateCulture=en-CA"" target=""_blank"">More information</a>
Long Run Exploration Ltd,LRE - Kakut Gas Plant 14-12,,Alberta,55.489500000000000,-118.325199999999995,Oil and gas extraction (except oil sands),,kilotonnes of carbon dioxide equivalents (kt CO2 eq),0,2022,<a href=""https://indicators-map.canada.ca/App/Detail?id=0112291&GoCTemplateCulture=en-CA"" target=""_blank"">More information</a>
City of Prince Albert,JW Oliver Waste Water Plant,Prince Albert,Saskatchewan,53.000000000000000,-105.000000000000000,Sewage Treatment Facilities,,kilotonnes of carbon dioxide equivalents (kt CO2 eq),0,2022,<a href=""https://indicators-map.canada.ca/App/Detail?id=0111960&GoCTemplateCulture=en-CA"" target=""_blank"">More information</a>
